stop_name,parent_station,stop_id,stop_lat,stop_lon,location_type
's-Hertogenbosch,,351617,51.69054,5.293723,1
's-Hertogenbosch,351617,545208,51.69054,5.293723,
Aachen Hbf,168299,270809,50.76794,6.090865,
Aachen Süd(Gr),,412112,50.731915,6.04541,1
Aachen Süd(Gr),412112,666257,50.731915,6.04541,
"Aachen, Hbf,Aachen",,168299,50.767723,6.092051,1
Aalen Hauptbahnhof,,473812,48.841602,10.096031,1
Aalen Hbf,473812,118809,48.841015,10.096271,
Aalen Hbf,473812,459324,48.84168,10.09613,
Aarhus,,484274,56.150074,10.204997,1
Aarhus,484274,576932,56.150074,10.204997,
Alfeld (Leine) Bahnhof,,193105,51.98114,9.81837,1
Alfeld(Leine),193105,464518,51.981373,9.818101,
Almelo,,624447,52.357285,6.654811,1
Almelo,624447,210619,52.357285,6.654811,
Altena (Westfalen),,161079,51.301826,7.668091,1
Altena(Westf),161079,174360,51.302013,7.668693,
Altena(Westf),161079,385091,51.301956,7.668576,
Altenbeken,,219289,51.766094,8.943016,1
Altenbeken,219289,518774,51.766296,8.94298,
Amersfoort Centraal,,128491,52.153465,5.373909,1
Amersfoort Centraal,128491,64451,52.153465,5.373909,
Amsterdam Centraal,,659306,52.37919,4.899431,1
Amsterdam Centraal,659306,519236,52.37919,4.899431,
Amstetten NÖ,,626727,48.121605,14.878112,1
Amstetten NÖ,626727,73539,48.121605,14.878112,
Andernach,496382,267761,50.434544,7.404839,
Andernach Bahnhof,,496382,50.434544,7.40484,1
Angermünde,451180,189069,53.015854,13.996267,
Angermünde,451180,463293,53.015793,13.995908,
Angermünde,451180,47414,53.01574,13.995672,
"Angermünde, Bahnhof",,451180,53.015823,13.995871,1
Anklam,487158,164104,53.8563,13.701554,
Anklam,487158,319272,53.85625,13.701518,
Anklam,487158,56483,53.856102,13.701827,
Anklam Bahnhof,,487158,53.855984,13.701563,1
Ansbach,,418939,49.29803,10.578246,1
Ansbach,418939,485896,49.29803,10.578239,
Apeldoorn,,3677,52.20943,5.968491,1
Apeldoorn,3677,626903,52.20943,5.968491,
Apolda,,665421,51.03094,11.526136,1
Apolda,665421,314894,51.03094,11.526136,
Arnhem Centraal,,247416,51.98478,5.901003,1
Arnhem Centraal,247416,481006,51.98478,5.901003,
Aschaffenburg Hbf,,542590,49.980556,9.1437,1
Aschaffenburg Hbf,542590,454975,49.980556,9.143697,
Attnang-Puchheim,,403786,48.012802,13.720719,1
Attnang-Puchheim,403786,236016,48.012802,13.720719,
Augsburg Hbf,,600697,48.36544,10.885569,1
Augsburg Hbf,600697,286257,48.36544,10.88557,
Augustfehn,,493288,53.220894,7.759622,1
Augustfehn,493288,104919,53.220943,7.759614,
Augustfehn,493288,554608,53.220844,7.75963,
Bad Bentheim,45932,15420,52.309853,7.157776,
Bad Bentheim,45932,536648,52.30978,7.157785,
Bad Bentheim Bahnhof,,45932,52.30953,7.158737,1
Bad Bentheim(Gr),,331338,52.3091,7.04016,1
Bad Bentheim(Gr),331338,492004,52.3091,7.04016,
Bad Bevensen,,538645,53.078247,10.574141,1
Bad Bevensen,538645,604174,53.07822,10.574081,
Bad Bevensen,538645,664226,53.078274,10.574201,
Bad Endorf,,545226,47.905067,12.301556,1
Bad Endorf,545226,667309,47.905067,12.301558,
Bad Gastein,,382791,47.111744,13.132456,1
Bad Gastein,382791,300307,47.111744,13.132456,
Bad Hersfeld,,432553,50.869633,9.716182,1
Bad Hersfeld,432553,207478,50.869633,9.716182,
Bad Hofgastein,,306104,47.195713,13.100939,1
Bad Hofgastein,306104,46011,47.195713,13.100939,
Bad Kleinen,581499,348921,53.766644,11.466456,
Bad Kleinen,581499,467166,53.766975,11.466925,
Bad Kleinen,581499,80664,53.766945,11.466213,
Bad Kleinen Bhf,,581499,53.76746,11.466429,1
Bad Nauheim,357390,609232,50.367695,8.749241,
Bad Nauheim Bahnhof,,357390,50.367798,8.748327,1
Bad Oeynhausen,294771,335512,52.205257,8.795962,
Bad Oeynhausen,294771,487796,52.205322,8.795944,
"Bad Oeynhausen, Bf/ZOB",,294771,52.205353,8.79916,1
Bad Schandau,108200,165931,50.91929,14.137538,
Bad Schandau,108200,32796,50.919315,14.137713,
Bad Schandau,108200,600717,50.91921,14.137704,
Bad Schandau Nationalparkbahnhof,,108200,50.91927,14.138099,1
Bad Zwischenahn,,213680,53.182568,8.002996,1
Bad Zwischenahn,213680,651266,53.182713,8.002593,
Baden-Baden,,665835,48.7902,8.191036,1
Baden-Baden,665835,207902,48.7903,8.190803,
Baden-Baden,665835,467600,48.790478,8.190417,
Baden-Baden,665835,55164,48.79032,8.190731,
Bamberg,,647650,49.90076,10.899484,1
Bamberg,647650,423349,49.90076,10.899489,
Basel Bad Bf,,574263,47.567287,7.607805,1
Basel Bad Bf,574263,99094,47.567287,7.607805,
Basel SBB,,232349,47.547405,7.589551,1
Basel SBB,232349,209888,47.547405,7.589551,
Bebra,,558191,50.969566,9.797788,1
Bebra,558191,548708,50.969566,9.797788,
Bensheim,638105,181102,49.68174,8.616901,
Bensheim,638105,252466,49.681328,8.616717,
Bensheim,638105,455874,49.681423,8.616721,
"Bensheim, Bahnhof",,638105,49.681805,8.616955,1
Bergen Bahnhof,,515195,54.420822,13.418737,1
Bergen auf Rügen,515195,214624,54.42034,13.417668,
Bergen auf Rügen,515195,330886,54.420414,13.417534,
Berlin Gesundbrunnen,169470,166052,52.548885,13.39039,
Berlin Gesundbrunnen,169470,218465,52.548386,13.390704,
Berlin Gesundbrunnen,169470,239896,52.548485,13.390691,
Berlin Gesundbrunnen,169470,312346,52.54869,13.390501,
Berlin Gesundbrunnen,169470,327254,52.548573,13.390519,
Berlin Gesundbrunnen,169470,377251,52.548794,13.3904,
Berlin Hbf,247157,385384,52.524788,13.369667,
Berlin Hbf,247157,431286,52.524967,13.369527,
Berlin Hbf,247157,651024,52.52507,13.369501,
Berlin Hbf,247157,85209,52.52488,13.369627,
Berlin Hbf (tief),247157,124064,52.525097,13.369321,
Berlin Hbf (tief),247157,133953,52.524998,13.369061,
Berlin Hbf (tief),247157,149006,52.52506,13.369167,
Berlin Hbf (tief),247157,229388,52.525143,13.369612,
Berlin Hbf (tief),247157,331169,52.525223,13.369887,
Berlin Hbf (tief),247157,476525,52.52519,13.369752,
Berlin Hbf (tief),247157,560027,52.52496,13.368911,
Berlin Hbf (tief),247157,635218,52.52511,13.369472,
Berlin Ostbahnhof,513544,150191,52.510242,13.434586,
Berlin Ostbahnhof,513544,21976,52.510178,13.434942,
Berlin Ostbahnhof,513544,253754,52.510414,13.435172,
Berlin Ostbahnhof,513544,41228,52.510475,13.43524,
Berlin Ostbahnhof,513544,591441,52.510254,13.435024,
Berlin Ostkreuz,104669,375715,52.502907,13.468553,
Berlin Ostkreuz,104669,88408,52.50304,13.468615,
Berlin Südkreuz,392079,188881,52.475925,13.365291,
Berlin Südkreuz,392079,195741,52.475685,13.365454,
Berlin Südkreuz,392079,24853,52.47565,13.365612,
Berlin Südkreuz,392079,378991,52.475887,13.365455,
Berlin Südkreuz,392079,460290,52.475407,13.365754,
Berlin Südkreuz,392079,99059,52.475433,13.365603,
Berlin Zoologischer Garten,136579,310382,52.50762,13.332927,
Berlin Zoologischer Garten,136579,464321,52.507652,13.332804,
Berlin Zoologischer Garten,136579,500433,52.507717,13.332555,
Berlin-Spandau,372944,101521,52.5346,13.197163,
Berlin-Spandau,372944,347670,52.534542,13.197124,
Berlin-Spandau,372944,390255,52.534485,13.1971,
Berlin-Spandau,372944,539674,52.534668,13.197191,
Berlin-Wannsee,157757,367607,52.421158,13.180074,
Berlin-Wannsee,157757,491858,52.421215,13.180006,
Bern,,393033,46.948833,7.439131,1
Bern,393033,559275,46.948833,7.439131,
Bernau(b Berlin),519553,100315,52.67533,13.592016,
Bernau(b Berlin),519553,59294,52.675426,13.591859,
Biberach ZOB/Bahnhof,,499157,48.101456,9.792795,1
Biberach(Riß),499157,248173,48.101936,9.792939,
Biberach(Riß),499157,344393,48.101994,9.793155,
Bielefeld Hbf,,97293,52.02941,8.533339,1
Bielefeld Hbf,97293,399030,52.029263,8.532722,
Bingen(Rhein) Hbf,499509,335481,49.969147,7.882717,
Bingen(Rhein) Hbf,499509,587663,49.968727,7.884263,
"Bingen, Hauptbahnhof",,499509,49.96874,7.883543,1
Binz (Ostseebad),,197005,54.404823,13.600502,1
Bischofshofen,,508162,47.41786,13.219888,1
Bischofshofen,508162,476466,47.41786,13.219888,
Bitterfeld,,38576,51.62286,12.316855,1
Bitterfeld,38576,545702,51.62286,12.31685,
Bludenz,,512482,47.154724,9.814564,1
Bludenz,512482,654632,47.154724,9.814564,
Bochnia,,460598,49.9773,20.430775,1
Bochnia,460598,29645,49.9773,20.430775,
Bochum Hbf,,159263,51.479465,7.223335,1
Bochum Hbf,159263,506082,51.478394,7.222859,
Bochum Hbf,159263,506265,51.47853,7.222715,
Bochum Hbf,159263,570729,51.478252,7.223012,
Bochum Hbf,159263,641061,51.478607,7.223275,
Bohumin,,410642,49.90073,18.359444,1
Bohumin,410642,288390,49.90073,18.359444,
Bologna Centrale,,291438,44.50614,11.343411,1
Bologna Centrale,291438,354168,44.50614,11.343411,
Bolzano/Bozen,,399932,46.496376,11.358791,1
Bolzano/Bozen,399932,332853,46.496376,11.358791,
Bondorf,,338027,48.52327,8.827879,1
Bondorf(b Herrenberg),338027,125509,48.52328,8.827735,
Bondorf(b Herrenberg),338027,197163,48.52329,8.827852,
Bonn Bad Godesberg Bf,,489018,50.68393,7.159555,1
Bonn Beuel Bf,,19431,50.738476,7.127656,1
Bonn Hbf,,409925,50.732006,7.097131,1
Bonn Hbf,409925,169640,50.731754,7.097203,
Bonn Hbf,409925,289458,50.73187,7.096987,
Bonn Hbf,409925,607152,50.731834,7.097275,
Bonn Hbf,409925,621011,50.73197,7.098954,
Bonn Hbf,409925,666491,50.73196,7.097364,
Bonn-Bad Godesberg,489018,70750,50.68379,7.159977,
Bonn-Beuel,19431,434842,50.738205,7.127862,
Bonn-Beuel,19431,453011,50.738728,7.126748,
Bonn-Beuel,19431,514573,50.737896,7.12815,
Boppard Hauptbahnhof,,625538,50.231403,7.586084,1
Boppard Hbf,625538,163685,50.231415,7.586102,
Borovnica,,233677,45.921318,14.367972,1
Borovnica,233677,183449,45.921318,14.367972,
Brandenburg Hbf,330861,451513,52.400276,12.565075,
Brandenburg Hbf,330861,468818,52.40043,12.565258,
Brandenburg Hbf,330861,639430,52.40021,12.565134,
"Brandenburg, Hauptbahnhof",,330861,52.400795,12.566036,1
Bratislava hl.st.,,429397,48.15891,17.106466,1
Bratislava hl.st.,429397,96662,48.15891,17.106466,
Braunschweig Hbf,235290,300566,52.252216,10.540295,
"Braunschweig, Hauptbahnhof",,235290,52.252644,10.539547,1
Breclav,,83163,48.7539,16.893236,1
Breclav,83163,336008,48.7539,16.893236,
Breclav(Gr),,635627,48.71265,16.86837,1
Breclav(Gr),635627,6677,48.71265,16.86837,
Bregenz,,555498,47.503002,9.739627,1
Bregenz,555498,133107,47.503002,9.739627,
Bregenz Riedenburg,,383065,47.49291,9.721313,1
Bregenz Riedenburg,383065,576879,47.49291,9.721313,
Bremen Hbf,,134687,53.083454,8.813719,1
Bremen Hbf,134687,347069,53.083256,8.812798,
Bremen Hbf,134687,452970,53.08348,8.813834,
Bremerhaven Hbf,,368471,53.534832,8.599605,1
Bremerhaven Hbf,368471,261968,53.53489,8.599382,
Bremerhaven Hbf,368471,667359,53.534767,8.599834,
Bremerhaven-Lehe,,356005,53.566425,8.600774,1
Bremerhaven-Lehe,356005,124538,53.5664,8.600854,
Bremerhaven-Lehe,356005,306846,53.56645,8.600694,
Brennero/Brenner,,622878,47.002342,11.505426,1
Brennero/Brenner,622878,105802,47.002342,11.505426,
Bressanone/Brixen,,601820,46.709896,11.649764,1
Bressanone/Brixen,601820,427660,46.709896,11.649764,
Brig,,638702,46.319424,7.988095,1
Brig,638702,94794,46.319424,7.988095,
Brno hl.n.,,582004,49.19054,16.612774,1
Brno hl.n.,582004,399207,49.19054,16.612774,
Bruchsal,,549753,49.124924,8.590347,1
Bruchsal,549753,165520,49.125088,8.590113,
Bruchsal,549753,442288,49.124622,8.589649,
Bruchsal,549753,456986,49.125053,8.590275,
Bruck/Mur,,487434,47.41383,15.279433,1
Bruck/Mur,487434,246111,47.41383,15.279433,
Bruxelles Midi,,664323,50.835377,4.335694,1
Bruxelles Midi,664323,278372,50.835377,4.335694,
Bruxelles-Nord,,576754,50.860237,4.361454,1
Bruxelles-Nord,576754,478340,50.860237,4.361454,
Buchloe,,396822,48.033722,10.716219,1
Buchloe,396822,567490,48.033722,10.716217,
Budapest-Kelenföld,,277523,47.464355,19.020456,1
Budapest-Kelenföld,277523,227980,47.464355,19.020456,
Budapest-Keleti,,368301,47.50038,19.085072,1
Budapest-Keleti,368301,211284,47.50038,19.085072,
Budapest-Nyugati,,82812,47.510708,19.057467,1
Budapest-Nyugati,82812,228571,47.510708,19.057467,
Bydgoszcz Glowna,,193077,53.135113,17.991636,1
Bydgoszcz Glowna,193077,222970,53.135113,17.991636,
Böblingen,,571109,48.687847,9.004533,1
Böblingen,571109,161405,48.688004,9.00438,
Böblingen,571109,265019,48.68794,9.004488,
Böblingen,571109,512714,48.687847,9.004641,
Büchen,663050,323328,53.474968,10.623285,
"Büchen, Büchen",,663050,53.47661,10.620907,1
Bünde(Westf),526456,181055,52.20239,8.574419,
Bünde(Westf),526456,92361,52.202274,8.574509,
"Bünde, Bahnhof / ZOB",,526456,52.20191,8.575767,1
Bützow,87677,433325,53.83709,11.998258,
Bützow,87677,445349,53.83715,11.998132,
Bützow,87677,82297,53.83704,11.997872,
"Bützow, Bahnhof",,87677,53.837006,11.997513,1
Celle,,327115,52.620457,10.062468,1
Celle,327115,549234,52.620457,10.062468,
Ceska Trebova,,472211,49.897324,16.446808,1
Ceska Trebova,472211,68936,49.897324,16.446808,
Chemnitz Hbf,208281,101249,50.84002,12.930907,
Chemnitz Hbf,208281,212383,50.83933,12.931177,
Chemnitz Hbf,208281,222264,50.84004,12.930799,
Chemnitz Hbf,208281,334927,50.839336,12.931096,
"Chemnitz, Hauptbahnhof",,208281,50.83963,12.930692,1
Chur,,160304,46.853085,9.528938,1
Chur,160304,654008,46.853085,9.528938,
Coburg,,43162,50.262924,10.957326,1
Coburg,43162,390927,50.262928,10.957328,
Cottbus Hbf,464727,156538,51.75054,14.323346,
Cottbus Hbf,464727,509276,51.751488,14.323561,
"Cottbus, Hauptbahnhof",,464727,51.750984,14.324464,1
Crailsheim,124217,175307,49.13768,10.06459,
Crailsheim,124217,571485,49.13787,10.064326,
Crailsheim,124217,606472,49.137604,10.064814,
Crailsheim Bahnhof,,124217,49.137913,10.06432,1
Czechowice-Dziedzice,,202615,49.915104,19.00465,1
Czechowice-Dziedzice,202615,502196,49.915104,19.00465,
D-Flughafen Bf,,241548,51.292088,6.786979,1
Dagebüll Kirche,,614129,54.73058,8.729632,1
Dagebüll Mole,,116460,54.73011,8.690239,1
Dagebüll Mole,116460,424277,54.729908,8.690989,
"Dagebüll, Kirche, Mast 9RB",614129,340651,54.73028,8.729485,
Darmstadt Hauptbahnhof,,303932,49.871937,8.631143,1
Darmstadt Hbf,303932,105970,49.873035,8.629159,
Debica,,596018,50.054417,21.405565,1
Debica,596018,13211,50.054417,21.405565,
Decin hl.n.,,339573,50.77325,14.200999,1
Decin hl.n.,339573,262925,50.773415,14.201247,
Deezbüll,,136871,54.77697,8.818274,1
Deezbüll,136871,664804,54.77697,8.818274,
Delmenhorst,,195196,53.05278,8.629879,1
Delmenhorst,195196,595912,53.05279,8.629758,
Dessau Hbf,,349579,51.839867,12.23494,1
Dessau Hbf,349579,636286,51.839867,12.234945,
Deventer,,296600,52.257435,6.160506,1
Deventer,296600,508359,52.257435,6.160506,
Diepholz,,487995,52.6046,8.380249,1
Diepholz,487995,42288,52.6046,8.380267,
Diepholz,487995,88475,52.604637,8.38013,
Dillenburg,466782,149979,50.734905,8.294586,
Dillenburg Bahnhof,,466782,50.734905,8.294586,1
Doberlug-Kirchhain,159989,477195,51.62053,13.564161,
Doberlug-Kirchhain,159989,661271,51.620533,13.564268,
"Doberlug-Kirchhain, Bahnhof",,159989,51.62061,13.564187,1
Dobova,,391562,45.89839,15.655178,1
Dobova,391562,149487,45.89839,15.655178,
Dobova(Gr),,440562,45.890633,15.680238,1
Dobova(Gr),440562,424534,45.890633,15.680238,
Domodossola,,613718,46.11529,8.296239,1
Domodossola,613718,44370,46.11529,8.296239,
Donaueschingen,329304,266163,47.947784,8.498919,
Donaueschingen,329304,335040,47.94801,8.4987,
Donaueschingen,329304,453427,47.94808,8.498727,
Donaueschingen Bahnhof,,329304,47.94753,8.499428,1
Donauwörth,,456789,48.714024,10.771447,1
Donauwörth,456789,429558,48.714027,10.771443,
Dorfgastein,,582137,47.23867,13.103062,1
Dorfgastein,582137,547287,47.23867,13.103062,
Dornbirn,,39140,47.41769,9.738808,1
Dornbirn,39140,526912,47.41769,9.738808,
Dortmund Hbf,,109795,51.51689,7.459592,1
Dortmund Hbf,109795,125296,51.517895,7.45929,
Dortmund Hbf,109795,243706,51.51796,7.458703,
Dortmund Hbf,109795,249679,51.51821,7.45864,
Dortmund Hbf,109795,312343,51.518333,7.458604,
Dortmund Hbf,109795,329667,51.518063,7.458685,
Dortmund Hbf,109795,354183,51.517883,7.458721,
Dortmund Hbf,109795,53849,51.517723,7.458775,
Dortmund Hbf,109795,612894,51.5176,7.458793,
Dresden Bahnhof Neustadt,,582119,51.065426,13.740882,1
Dresden Hauptbahnhof,,508233,51.03993,13.732932,1
Dresden Hbf,508233,152584,51.039875,13.731396,
Dresden Hbf,508233,40660,51.03996,13.731468,
Dresden Hbf,508233,650360,51.040016,13.731531,
Dresden Hbf,508233,65780,51.04052,13.731962,
Dresden-Neustadt,582119,198870,51.0659,13.740701,
Dresden-Neustadt,582119,231436,51.066097,13.740235,
Dresden-Neustadt,582119,325684,51.066017,13.740352,
Dresden-Neustadt,582119,363445,51.065994,13.740424,
Dresden-Neustadt,582119,577026,51.06591,13.740541,
Duisburg Hbf,,96179,51.430454,6.774528,1
Duisburg Hbf,96179,178689,51.429867,6.776882,
Duisburg Hbf,96179,226658,51.43001,6.775624,
Duisburg Hbf,96179,447856,51.429836,6.777088,
Duisburg Hbf,96179,449066,51.42997,6.775902,
Duisburg Hbf,96179,480279,51.43,6.775696,
Duisburg Hbf,96179,81978,51.429787,6.775903,
Döbeln Hbf,187412,525851,51.12688,13.095119,
"Döbeln, Hauptbahnhof",,187412,51.126686,13.09564,1
Düren,,362952,50.809517,6.482451,1
Düren,362952,118703,50.809517,6.482451,
Düsseldorf Flughafen,241548,357279,51.292007,6.786836,
Düsseldorf Flughafen,241548,446068,51.291794,6.78679,
Düsseldorf Flughafen,241548,496707,51.291813,6.78705,
Düsseldorf Flughafen,241548,576419,51.29178,6.786601,
Düsseldorf Hbf,,37892,51.220253,6.792997,1
Düsseldorf Hbf,37892,11010,51.219963,6.794319,
Düsseldorf Hbf,37892,141701,51.219555,6.794947,
Düsseldorf Hbf,37892,165273,51.219597,6.794866,
Düsseldorf Hbf,37892,341295,51.220165,6.793743,
Düsseldorf Hbf,37892,366808,51.219673,6.794704,
Düsseldorf Hbf,37892,514819,51.21992,6.79421,
Düsseldorf Hbf,37892,528791,51.219444,6.795171,
Düsseldorf Hbf,37892,546828,51.21948,6.795099,
Düsseldorf Hbf,37892,662731,51.219364,6.795333,
Düsseldorf Hbf,37892,81442,51.219707,6.794641,
Eberswalde Hbf,446552,394660,52.83376,13.796866,
Eberswalde Hbf,446552,466846,52.833755,13.797157,
Eberswalde Hbf,446552,85358,52.833805,13.796755,
"Eberswalde, Hauptbahnhof",,446552,52.833683,13.79695,1
Eichenberg,,220705,51.374825,9.921482,1
Eichenberg,220705,161979,51.374825,9.921482,
Eisenach,,341533,50.976894,10.331974,1
Eisenach,341533,340249,50.97692,10.331986,
Ellwangen,13079,121686,48.96439,10.129664,
Ellwangen,13079,632827,48.964123,10.129681,
Ellwangen Bahnhof,,13079,48.964535,10.129762,1
Elsterwerda,57388,206292,51.459404,13.516305,
Elsterwerda,57388,349713,51.460335,13.516754,
"Elsterwerda, Bahnhof",,57388,51.459805,13.516412,1
Elze(Han),28289,475428,52.120564,9.747125,
Elze/Bahnhof,,28289,52.12058,9.746604,1
Emden Außenhafen,402359,574485,53.344498,7.186394,
Emden Hbf,322831,114248,53.369396,7.195112,
Emden Hbf,322831,434760,53.36936,7.195267,
Emden Hbf,322831,71061,53.36933,7.195423,
Emden Hbf,322831,95236,53.369442,7.194968,
Emden(Ostfriesl) Außenhafen,,402359,53.344498,7.186394,1
Emden(Ostfriesl) Hbf,,322831,53.36925,7.195502,1
Emmerich(Gr),,426779,51.901196,6.137652,1
Emmerich(Gr),426779,162532,51.901196,6.137652,
Engen,608668,209492,47.8561,8.772597,
Engen,608668,368768,47.85621,8.772516,
Engen Bahnhof,,608668,47.856007,8.772561,1
Erfurt Hbf,,125835,50.97227,11.038131,1
Erfurt Hbf,125835,192425,50.97255,11.038499,
Ergenzingen,336861,58407,48.48959,8.810191,
Ergenzingen Bahnhof,,336861,48.489594,8.809949,1
Erkelenz,,266707,51.076595,6.321634,1
Erkelenz,266707,91407,51.076595,6.321634,
Erlangen,,559425,49.595825,11.00164,1
Erlangen,559425,31525,49.59583,11.001638,
Essen Hauptbahnhof,,110529,51.449734,7.012213,1
Essen Hbf,110529,175931,51.451363,7.014001,
Essen Hbf,110529,270015,51.451355,7.014793,
Essen Hbf,110529,435643,51.451164,7.014028,
Essen Hbf,110529,475922,51.451736,7.013938,
Essen Hbf,110529,609252,51.45151,7.013974,
Essen Hbf,110529,657459,51.45159,7.013956,
Esslingen (N),,70967,48.73854,9.300582,1
Esslingen(Neckar),70967,60313,48.73881,9.30008,
Eutingen im Gäu,231342,186128,48.479736,8.782361,
Eutingen im Gäu Bahnhof,,231342,48.47957,8.781643,1
Feldkirch,,250137,47.24098,9.604102,1
Feldkirch,250137,469238,47.24098,9.604102,
Ffm Hauptbahnhof Gleis 20+21,627253,377136,50.107098,8.662068,
Fieberbrunn,,540123,47.49114,12.528944,1
Fieberbrunn,540123,36700,47.49114,12.528944,
Finnentrop,612317,88463,51.1729,7.96467,
Finnentrop Bf,,612317,51.17316,7.964598,1
Fischen,,561204,47.456596,10.271723,1
Fischen,561204,30608,47.456593,10.271717,
Flensburg,,227897,54.774048,9.436687,1
Flensburg,227897,203858,54.773857,9.436511,
Flensburg,227897,452780,54.774227,9.436848,
Flensburg [Grenze],,2284,54.814842,9.36324,1
Flensburg(Gr),2284,360226,54.814842,9.36324,
Flensburg-Weiche,69245,109808,54.75792,9.398257,
Flensburg-Weiche Bahnhof,,69245,54.757866,9.3995,1
Flughafen BER - Terminal 1-2,,323870,52.364605,13.509874,1
Flughafen BER - Terminal 1-2,323870,393042,52.36416,13.509246,
Flughafen BER - Terminal 1-2,323870,418322,52.364063,13.509307,
Flughafen Wien,,159510,48.120903,16.56307,1
Flughafen Wien,159510,315954,48.120903,16.56307,
Forbach(F),,340751,49.189217,6.900258,1
Forbach(F),340751,392961,49.189217,6.900258,
Forbach(fr),,96343,49.21409,6.944314,1
Forbach(fr),96343,442521,49.21409,6.944314,
Fortezza/Franzensfeste,,111318,46.78872,11.610083,1
Fortezza/Franzensfeste,111318,236961,46.78872,11.610083,
Frankfurt (Main) Flughafen Fernbahnhof,,293816,50.053055,8.570224,1
Frankfurt (Main) Flughafen Regionalbahnhof,,291761,50.0512,8.571423,1
Frankfurt (Main) Hauptbahnhof,,627253,50.107155,8.663759,1
Frankfurt (Main) Südbahnhof,,452204,50.099327,8.686442,1
Frankfurt (Main) Westbahnhof,,511802,50.119446,8.639455,1
"Frankfurt (Oder), Bahnhof",,261112,52.337204,14.546369,1
Frankfurt(M) Flughafen Fernbf,293816,159474,50.05317,8.570181,
Frankfurt(M) Flughafen Regionalbf,291761,374921,50.0512,8.571423,
Frankfurt(Main)Hbf,627253,162309,50.106102,8.663151,
Frankfurt(Main)Hbf,627253,170537,50.10652,8.662645,
Frankfurt(Main)Hbf,627253,200810,50.106686,8.662504,
Frankfurt(Main)Hbf,627253,234581,50.1069,8.662237,
Frankfurt(Main)Hbf,627253,254278,50.107033,8.662124,
Frankfurt(Main)Hbf,627253,326529,50.10681,8.66235,
Frankfurt(Main)Hbf,627253,363780,50.106148,8.663123,
Frankfurt(Main)Hbf,627253,378983,50.106754,8.662378,
Frankfurt(Main)Hbf,627253,380241,50.1062,8.663011,
Frankfurt(Main)Hbf,627253,394205,50.1063,8.662814,
Frankfurt(Main)Hbf,627253,395215,50.10647,8.662687,
Frankfurt(Main)Hbf,627253,419851,50.106262,8.662941,
Frankfurt(Main)Hbf,627253,420678,50.10577,8.663461,
Frankfurt(Main)Hbf,627253,423394,50.10696,8.662195,
Frankfurt(Main)Hbf,627253,542210,50.10662,8.662561,
Frankfurt(Main)Hbf,627253,624168,50.106003,8.663306,
Frankfurt(Main)Hbf,627253,659812,50.10636,8.662772,
Frankfurt(Main)Hbf,627253,7772,50.10587,8.663474,
Frankfurt(Main)Süd,452204,204200,50.099003,8.686179,
Frankfurt(Main)Süd,452204,349872,50.099205,8.685283,
Frankfurt(Main)Süd,452204,462603,50.098965,8.685759,
Frankfurt(Main)Süd,452204,69244,50.099045,8.685675,
Frankfurt(Main)Süd,452204,81744,50.099064,8.686108,
Frankfurt(Main)West,511802,521827,50.11939,8.638952,
Frankfurt(Oder),261112,232915,52.336517,14.545882,
Frankfurt(Oder),261112,261851,52.336605,14.546146,
Frankfurt(Oder),261112,274023,52.336563,14.545988,
Frankfurt(Oder),261112,278887,52.336643,14.54624,
Frankfurt(Oder)(Gr),,630721,52.321175,14.576403,1
Frankfurt(Oder)(Gr),630721,315302,52.321175,14.576403,
Fredericia st,,57770,55.56809,9.738813,1
Fredericia st,57770,31353,55.56809,9.738813,
Freiberg(Sachs),2592,11203,50.908634,13.344572,
Freiberg(Sachs),2592,326545,50.908737,13.344644,
"Freiberg, Bahnhof",,2592,50.90936,13.342219,1
Freiburg Hauptbahnhof,,629138,47.996616,7.840442,1
Freiburg(Breisgau) Hbf,629138,161278,47.997696,7.84117,
Freiburg(Breisgau) Hbf,629138,164605,47.997704,7.841619,
Freiburg(Breisgau) Hbf,629138,277767,47.99773,7.841511,
Freiburg(Breisgau) Hbf,629138,451326,47.997765,7.841295,
Freilassing,,425604,47.836914,12.977197,1
Freilassing,425604,217974,47.836918,12.977193,
Friedberg (Hessen) Bahnhof,,30687,50.332745,8.761246,1
Friedberg(Hess),30687,652231,50.33204,8.760561,
Friedrichsh. Stadtbahnhof,,555765,47.653057,9.473426,1
Friedrichshafen Stadt,555765,626288,47.653084,9.473498,
Fulda,169454,639883,50.555016,9.683904,
Fulda Bahnhof,,169454,50.55492,9.683761,1
Fürth(Bay)Hbf,,370521,49.469707,10.989988,1
Fürth(Bay)Hbf,370521,338833,49.469707,10.989988,
Garmisch-Partenkirchen,,618338,47.491455,11.097014,1
Garmisch-Partenkirchen,618338,340814,47.49145,11.097013,
Gdansk Glowny,,569568,54.35552,18.643803,1
Gdansk Glowny,569568,78699,54.35552,18.643803,
Gdansk Oliwa,,325294,54.409893,18.571741,1
Gdansk Oliwa,325294,298087,54.409893,18.571741,
Gdansk Wrzeszcz,,613720,54.38186,18.605434,1
Gdansk Wrzeszcz,613720,345545,54.38186,18.605434,
Gdynia Glowna,,415280,54.52084,18.529556,1
Gdynia Glowna,415280,469457,54.52084,18.529556,
Geilenkirchen,,655299,50.96104,6.124518,1
Geilenkirchen,655299,50695,50.96104,6.124518,
Geislingen (Steige),,543957,48.619247,9.841808,1
Geislingen(Steige),543957,219117,48.619247,9.841879,
Gelsenkirchen Hbf,,412171,51.504925,7.102206,1
Gelsenkirchen Hbf,412171,29444,51.50487,7.103141,
Gelsenkirchen Hbf,412171,357761,51.504982,7.103159,
Gelsenkirchen Hbf,412171,36880,51.5049,7.102455,
Gelsenkirchen Hbf,412171,44199,51.505142,7.103015,
Gelsenkirchen Hbf,412171,532385,51.50504,7.103051,
Gelsenkirchen Hbf,412171,575259,51.504814,7.103177,
Gera Hbf,,542743,50.88342,12.077098,1
Gera Hbf,542743,668501,50.883423,12.077092,
Gießen,669762,202439,50.579884,8.663799,
Gießen Bahnhof,,669762,50.579884,8.663799,1
Gliwice,,393654,50.301105,18.677158,1
Gliwice,393654,539883,50.301105,18.677158,
Glogow,,361689,51.668957,16.079712,1
Glogow,361689,302856,51.668957,16.079712,
Gniezno,,181649,52.52965,17.602184,1
Gniezno,181649,128425,52.52965,17.602184,
Golling-Abtenau,,194115,47.600574,13.164086,1
Golling-Abtenau,194115,268165,47.600574,13.164086,
Gotha,,279246,50.93905,10.712328,1
Gotha,279246,70848,50.93907,10.712568,
Graz Hbf,,3240,47.072296,15.416437,1
Graz Hbf,3240,162838,47.072296,15.416437,
Greifswald,,24980,54.092926,13.370264,1
Greifswald,24980,379923,54.092815,13.370453,
Greifswald,24980,412614,54.092854,13.370516,
Greifswald,24980,514104,54.092922,13.370262,
Györ,,420058,47.68198,17.63479,1
Györ,420058,517799,47.68198,17.63479,
Gäufelden,,644550,48.559715,8.850103,1
Gäufelden,644550,272802,48.559734,8.85004,
Gäufelden,644550,366575,48.559704,8.850157,
Göppingen,,149907,48.70012,9.652344,1
Göppingen,149907,662943,48.699963,9.6522,
Göppingen,149907,72335,48.699856,9.652146,
Göppingen,149907,77337,48.700027,9.651969,
Göttingen,,141402,51.53672,9.925875,1
Göttingen,141402,109690,51.536587,9.925826,
Göttingen,141402,186245,51.536865,9.92561,
Göttingen,141402,374977,51.53667,9.925681,
Göttingen,141402,473843,51.53698,9.925599,
Göttingen,141402,632771,51.536537,9.925908,
Göttingen,141402,652447,51.53674,9.925647,
Göttingen,141402,78246,51.536682,9.926424,
Günzburg,,582183,48.460564,10.27926,1
Günzburg,582183,275530,48.460564,10.279262,
Gütersloh Hbf,,333382,51.90694,8.385071,1
Gütersloh Hbf,333382,670130,51.90694,8.385071,
HER Wanne-Eickel Hbf,,263630,51.53249,7.165502,1
Hagen Hauptbahnhof,,450095,51.361916,7.462413,1
Hagen Hbf,450095,80933,51.362747,7.460249,
Haiger,236238,546933,50.74111,8.221986,
Haiger Bahnhof,,236238,50.74111,8.221986,1
Halle(Saale)Hbf,,252680,51.477512,11.987085,1
Halle(Saale)Hbf,252680,66025,51.47751,11.987085,
Hallein,,619082,47.68517,13.099434,1
Hallein,619082,516333,47.68517,13.099434,
Hamburg Dammtor,434523,380976,53.560757,9.989569,
Hamburg Hbf,414320,125771,53.55314,10.006316,
Hamburg Hbf,414320,147504,53.551765,10.00699,
Hamburg Hbf,414320,201331,53.552315,10.007035,
Hamburg Hbf,414320,22554,53.55174,10.006765,
Hamburg Hbf,414320,317012,53.552383,10.007493,
Hamburg Hbf,414320,426242,53.552216,10.00628,
Hamburg Hbf,414320,550260,53.55225,10.00655,
Hamburg Hbf,414320,62541,53.552357,10.007322,
Hamburg Hbf,414320,631703,53.552277,10.006756,
Hamburg Hbf,414320,643058,53.552235,10.006433,
Hamburg Hbf,414320,649294,53.55273,10.006899,
Hamburg Hbf,414320,658205,53.55234,10.007223,
"Hamburg, Bergedorf",,248668,53.48985,10.205962,1
"Hamburg, Hamburg Dammtor",,434523,53.560783,9.989403,1
"Hamburg, Hamburg Hbf",,414320,53.55275,10.007941,1
"Hamburg, Hamburg-Altona",,607768,53.55325,9.935405,1
"Hamburg, Hamburg-Harburg",,555774,53.456375,9.990947,1
Hamburg-Altona,607768,238529,53.552692,9.935181,
Hamburg-Bergedorf,248668,305223,53.48955,10.206101,
Hamburg-Bergedorf,248668,447830,53.48982,10.206172,
Hamburg-Bergedorf,248668,564205,53.48963,10.205985,
Hamburg-Harburg(S),555774,599787,53.455902,9.991704,
"Hamm (Westf), Hauptbahnhof",,651850,51.678547,7.809172,1
Hamm(Westf)Hbf,651850,142460,51.678078,7.807821,
Hamm(Westf)Hbf,651850,151794,51.678474,7.807276,
Hamm(Westf)Hbf,651850,165792,51.6785,7.807492,
Hamm(Westf)Hbf,651850,278300,51.678616,7.808291,
Hamm(Westf)Hbf,651850,329295,51.678513,7.807617,
Hamm(Westf)Hbf,651850,403182,51.678593,7.808121,
Hamm(Westf)Hbf,651850,41977,51.67856,7.807896,
Hanau Hauptbahnhof,,362603,50.121346,8.928415,1
Hanau Hbf,362603,319669,50.121346,8.928415,
Hannover Hauptbahnhof,,362786,52.37649,9.74107,1
Hannover Hbf,362786,155438,52.37649,9.74107,
Hausach,408938,83850,48.284924,8.181665,
Hausach Bahnhof,,408938,48.284973,8.181514,1
Hegyeshalom,,107136,47.913975,17.145296,1
Hegyeshalom,107136,102005,47.913975,17.145296,
Hegyeshalom(Gr),,447331,47.93826,17.095844,1
Hegyeshalom(Gr),447331,518977,47.93826,17.095844,
Heide(Holst),,307427,54.192932,9.101242,1
Heide(Holst),307427,562410,54.19306,9.101122,
Heide(Holst),307427,620071,54.19317,9.100833,
Heidelberg Hbf,593333,160008,49.403625,8.674905,
Heidelberg Hbf,593333,164348,49.40382,8.674716,
Heidelberg Hbf,593333,200049,49.40392,8.674851,
Heidelberg Hbf,593333,286175,49.40351,8.674815,
Heidelberg Hbf,593333,415460,49.40359,8.67451,
Heidelberg Hbf,593333,520155,49.403503,8.674375,
Heidelberg Hbf,593333,592991,49.403843,8.675138,
Heidelberg Hbf,593333,601529,49.40357,8.675442,
"Heidelberg, Hauptbahnhof",,593333,49.404316,8.676243,1
Heilbronn Hauptbahnhof,,2345,49.142925,9.207974,1
Heilbronn Hbf,2345,633494,49.143307,9.207715,
Helmstedt,480851,425013,52.22181,11.010192,
Helmstedt,480851,564574,52.22185,11.010084,
"Helmstedt, Bahnhof",,480851,52.22207,11.010093,1
Hengelo,,612878,52.261852,6.793726,1
Hengelo,612878,173873,52.261852,6.793726,
Heppenheim(Bergstr),653362,623812,49.641495,8.633412,
Heppenheim(Bergstr),653362,65834,49.641495,8.633232,
"Heppenheim, Bahnhof",,653362,49.641396,8.63343,1
Herborn Bahnhof,,593571,50.68468,8.3083,1
Herborn(Dillkr),593571,112766,50.68458,8.308274,
Herford,,57357,52.11961,8.663643,1
Herford,57357,191072,52.11961,8.663643,
Hermsdorf-Klosterlausnitz,,239820,50.90385,11.858619,1
Hermsdorf-Klosterlausnitz,239820,462632,50.903778,11.858626,
Herrenberg,,440777,48.59399,8.863302,1
Herrenberg,440777,107203,48.594112,8.862716,
Herrenberg,440777,642202,48.593933,8.862895,
Herzogenrath,,102777,50.870914,6.094486,1
Herzogenrath,102777,621842,50.870914,6.094486,
Hildesheim Hauptbahnhof,,303378,52.159668,9.952588,1
Hildesheim Hbf,303378,424814,52.160027,9.952812,
Hildesheim Hbf,303378,74270,52.160275,9.952633,
Hilversum,,347235,52.22667,5.181399,1
Hilversum,347235,322737,52.22667,5.181399,
Hochfilzen,,418612,47.467712,12.626525,1
Hochfilzen,418612,19726,47.467712,12.626525,
Hohenems,,202896,47.364708,9.681001,1
Hohenems,202896,9817,47.364708,9.681001,
Homburg(Saar)Hbf,,448705,49.328083,7.337035,1
Homburg(Saar)Hbf,448705,72461,49.328083,7.337035,
Hopfgarten im Brixental,,164493,47.455353,12.14918,1
Hopfgarten im Brixental,164493,553339,47.455353,12.14918,
Horb,50157,400555,48.441597,8.688775,
Horb,50157,467623,48.44146,8.688829,
Horb Bahnhof/ZOB,,50157,48.441853,8.688892,1
Hornberg Bahnhof,,245337,48.212,8.232997,1
Hornberg(Schwarzw),245337,507123,48.211895,8.23294,
Horsens st,,181453,55.86279,9.8355,1
Horsens st,181453,461414,55.86279,9.8355,
Hude,497628,312877,53.10929,8.460912,
Hude,497628,421072,53.10924,8.460892,
Hude(Oldb),,497628,53.10937,8.460953,1
Husum,,170833,54.472034,9.056426,1
Husum,170833,154739,54.471897,9.056276,
Husum,170833,480141,54.472168,9.056571,
Husum,170833,518408,54.471985,9.05636,
Hünfeld,111057,127826,50.673237,9.762918,
Hünfeld Bahnhof,,111057,50.673237,9.762918,1
Ibbenbüren,430345,641950,52.276943,7.721307,
"Ibbenbüren, Bahnhof",,430345,52.27675,7.721065,1
Ilirska Bistrica,,197526,45.569275,14.236037,1
Ilirska Bistrica,197526,119284,45.569275,14.236037,
Immendingen,219231,144096,47.93601,8.729536,
Immendingen,219231,293222,47.935867,8.729145,
Immendingen Bahnhof,,219231,47.93643,8.728768,1
Immenstadt,,92713,47.559204,10.213997,1
Immenstadt,92713,625377,47.559204,10.213999,
Imst-Pitztal,,477440,47.219074,10.76167,1
Imst-Pitztal,477440,515557,47.219074,10.76167,
Ingolstadt Hbf,,577263,48.74455,11.437341,1
Ingolstadt Hbf,577263,19311,48.74454,11.437337,
Innsbruck Hbf,,664361,47.26333,11.40051,1
Innsbruck Hbf,664361,471430,47.26333,11.40051,
Inowroclaw,,348690,52.804947,18.24406,1
Inowroclaw,348690,40464,52.804947,18.24406,
Interlaken Ost,,645479,46.6905,7.869,1
Interlaken Ost,645479,250373,46.6905,7.869,
Interlaken West,,521034,46.68295,7.851366,1
Interlaken West,521034,362891,46.68295,7.851366,
Iselle transito,,45069,46.27205,8.097801,1
Iselle transito,45069,600578,46.27205,8.097801,
"Iserl., Letmathe Bf",,63560,51.36308,7.618666,1
Itzehoe,,278096,53.92408,9.510151,1
Itzehoe,278096,196859,53.924175,9.510147,
Itzehoe,278096,475608,53.924232,9.510222,
Itzehoe,278096,565730,53.924114,9.510069,
Jaroslaw,,383909,50.01067,22.677896,1
Jaroslaw,383909,614458,50.01067,22.677896,
Jena Paradies,,40751,50.924854,11.587468,1
Jena Paradies,40751,575680,50.924854,11.587461,
Jena West,,425972,50.923286,11.57785,1
Jena West,425972,291386,50.923286,11.577848,
Jena-Göschwitz,,27935,50.8838,11.593217,1
Jena-Göschwitz,27935,509325,50.88394,11.593537,
Jenbach,,266903,47.388447,11.778454,1
Jenbach,266903,329926,47.388447,11.778454,
Jesenice(Gr),,270143,46.48141,14.020333,1
Jesenice(Gr),270143,140778,46.48141,14.020333,
Jesenice(SL),,401182,46.436325,14.054913,1
Jesenice(SL),401182,169237,46.436325,14.054913,
Kaiserslautern Hbf,291500,29425,49.435905,7.768532,
Kaiserslautern Hbf,291500,389460,49.435856,7.768559,
"Kaiserslautern, Hbf",,291500,49.436275,7.768262,1
Kapfenberg,,30840,47.44512,15.292088,1
Kapfenberg,30840,317767,47.44512,15.292088,
Karlsruhe Hauptbahnhof,,646407,48.993347,8.401036,1
Karlsruhe Hbf,646407,10920,48.993675,8.401116,
Karlsruhe Hbf,646407,123439,48.993473,8.401179,
Karlsruhe Hbf,646407,159770,48.993557,8.401179,
Karlsruhe Hbf,646407,323992,48.993515,8.402181,
Karlsruhe Hbf,646407,403191,48.99332,8.401422,
Karlsruhe Hbf,646407,556961,48.993732,8.401071,
Karlsruhe Hbf,646407,567,48.99321,8.401458,
Karlsruhe Hbf,646407,614908,48.992954,8.40161,
Karlsruhe Hbf,646407,69928,48.99385,8.401009,
Karlsruhe Hbf,646407,83160,48.99313,8.401503,
Karlsruhe Hbf,646407,86461,48.99302,8.401575,
Karlsruhe Hbf,646407,93047,48.993355,8.401269,
Karlsruhe-Durlach,,85430,49.00225,8.462759,1
Karlsruhe-Durlach,85430,307764,49.00207,8.462597,
Karlsruhe-Durlach,85430,400193,49.002167,8.462489,
Karlsruhe-Durlach,85430,541620,49.002155,8.462328,
Kassel Bahnhof Wilhelmshöhe,,114597,51.31313,9.44705,1
Kassel-Wilhelmshöhe,114597,187151,51.312435,9.448181,
Katowice,,250899,50.257515,19.017164,1
Katowice,250899,303471,50.257515,19.017164,
Kaufbeuren,,390422,47.87543,10.629495,1
Kaufbeuren,390422,259714,47.87543,10.629496,
Kehl(Gr),,412250,48.575645,7.801118,1
Kehl(Gr),412250,137441,48.575645,7.801118,
Keitum,,400162,54.888996,8.368841,1
Keitum,400162,588878,54.888813,8.368969,
Kempten(Allgäu)Hbf,,698,47.711746,10.31761,1
Kempten(Allgäu)Hbf,698,63275,47.711746,10.31761,
Kiel Hbf,,459567,54.314205,10.131429,1
Kiel Hbf,459567,315389,54.31442,10.131609,
Kirchberg in Tirol,,574610,47.448917,12.309101,1
Kirchberg in Tirol,574610,541239,47.448917,12.309101,
Kitzbühel,,662464,47.45411,12.391045,1
Kitzbühel,662464,16819,47.45411,12.391045,
Kitzbühel Hahnenkamm,,389134,47.44339,12.389856,1
Kitzbühel Hahnenkamm,389134,228946,47.44339,12.389856,
Klagenfurt Hbf,,331692,46.615585,14.313569,1
Klagenfurt Hbf,331692,470081,46.615585,14.313569,
Klanxbüll,,656577,54.86234,8.675999,1
Klanxbüll,656577,329063,54.862103,8.676329,
Koblenz Hauptbahnhof,,240884,50.350925,7.588339,1
Koblenz Hbf,240884,8775,50.35093,7.588345,
Koebenhavn H,,351291,55.67272,12.564617,1
Koebenhavn H,351291,6303,55.67272,12.564617,
Kolding st,,375214,55.49084,9.481528,1
Kolding st,375214,385943,55.49084,9.481528,
Kolin(CZ),,332995,50.025436,15.214279,1
Kolin(CZ),332995,213003,50.025436,15.214279,
Konin,,221883,52.231396,18.253336,1
Konin,221883,218039,52.231396,18.253336,
Konstanz,398932,213902,47.658848,9.177333,
Konstanz,398932,401890,47.658752,9.177312,
Konstanz Bahnhof,,398932,47.658794,9.17727,1
Krakow Glowny,,214924,50.067196,19.947426,1
Krakow Glowny,214924,246038,50.067196,19.947426,
Krakow Plaszow,,10188,50.03509,19.974894,1
Krakow Plaszow,10188,191704,50.03509,19.974894,
Kranj,,272545,46.23901,14.348167,1
Kranj,272545,417898,46.23901,14.348167,
Krefeld Hauptbahnhof,,178070,51.325623,6.568194,1
Krefeld Hbf,178070,531514,51.325672,6.569398,
Krefeld Hbf,178070,575416,51.32541,6.569613,
Kreiensen,,521669,51.85196,9.966566,1
Kreiensen,521669,16093,51.85172,9.965954,
Kreiensen,521669,548815,51.85182,9.965966,
Kreuztal,216141,132604,50.955246,7.992805,
Kreuztal,216141,407922,50.95596,7.991961,
Kreuztal Bf,,216141,50.95591,7.992113,1
Kronach,,253114,50.23961,11.320111,1
Kronach,253114,152067,50.239613,11.320115,
Krsko,,355650,45.95624,15.493454,1
Krsko,355650,74345,45.95624,15.493454,
Krumpendorf/Wörthersee,,262479,46.62633,14.221512,1
Krumpendorf/Wörthersee,262479,179381,46.62633,14.221512,
Kufstein,,275749,47.58308,12.16555,1
Kufstein,275749,360292,47.58308,12.16555,
Kutno,,532363,52.226963,19.348616,1
Kutno,532363,533815,52.226963,19.348616,
Kuty,,293801,48.661892,17.047695,1
Kuty,293801,33706,48.661892,17.047695,
Kuty(Gr),,95509,48.71108,17.000406,1
Kuty(Gr),95509,330131,48.71108,17.000406,
Köln Deutz Messe/Deutz Bf,,227564,50.940876,6.974996,1
Köln Ehrenfeld Bf Ehrenfeld,,360913,50.951527,6.91727,1
Köln Flughafen Köln/Bonn Flughafen Bf,,550705,50.878902,7.119292,1
Köln Hbf,,408052,50.94303,6.958727,1
Köln Hbf,408052,100386,50.9434,6.958719,
Köln Hbf,408052,11784,50.943134,6.958081,
Köln Hbf,408052,246163,50.943302,6.958485,
Köln Hbf,408052,249492,50.943497,6.958943,
Köln Hbf,408052,403643,50.943195,6.95826,
Köln Hbf,408052,469765,50.943436,6.958799,
Köln Hbf,408052,474224,50.94303,6.958729,
Köln Hbf,408052,48849,50.943237,6.958332,
Köln Hbf,408052,579697,50.943333,6.958557,
Köln Messe/Deutz,227564,347815,50.940876,6.975921,
Köln Messe/Deutz,227564,472092,50.940674,6.975858,
Köln Messe/Deutz Gl.11-12,227564,178165,50.941723,6.974067,
Köln Messe/Deutz Gl.11-12,227564,445896,50.9416,6.973963,
Köln Messe/Deutz Gl.11-12,227564,504724,50.941566,6.973864,
Köln Süd,176890,671460,50.9273,6.938059,
Köln Süd Bf,,176890,50.9273,6.938048,1
Köln-Ehrenfeld,360913,124981,50.951534,6.917276,
Köln-Ehrenfeld,360913,342395,50.951748,6.917621,
Köln-Ehrenfeld,360913,436026,50.951653,6.917648,
Köln/Bonn Flughafen,550705,119103,50.879154,7.119149,
Köln/Bonn Flughafen,550705,275835,50.879063,7.11958,
Königs Wusterhausen,163845,112662,52.29666,13.63135,
Köthen,,184179,51.751934,11.989356,1
Köthen,184179,455466,51.75193,11.989358,
Lahr (Schwarzwald) Bahnhof,,460550,48.340572,7.835708,1
Lahr(Schwarzw),460550,397107,48.340435,7.834734,
Lancut,,384029,50.08143,22.227507,1
Lancut,384029,467027,50.08143,22.227507,
Landeck-Zams,,176364,47.148243,10.578392,1
Landeck-Zams,176364,583788,47.148243,10.578392,
Landquart,,172373,46.96744,9.554045,1
Landquart,172373,120038,46.96744,9.554045,
Landstuhl,110756,419145,49.416283,7.56624,
"Landstuhl, Bahnhof",,110756,49.416332,7.566159,1
Langen am Arlberg,,73526,47.13172,10.120375,1
Langen am Arlberg,73526,467722,47.13172,10.120375,
Langenhagen Bahnhof Mitte,,371484,52.44028,9.726024,1
Langenhagen Mitte,371484,236783,52.44028,9.726024,
Leer(Ostfriesl),,592913,53.23141,7.465229,1
Leer(Ostfriesl),592913,140621,53.23141,7.465242,
Leer(Ostfriesl),592913,198500,53.23138,7.465076,
Leer(Ostfriesl),592913,403689,53.231438,7.46537,
Legnica,,634022,51.21385,16.168922,1
Legnica,634022,243784,51.21385,16.168922,
Leipzig Hbf,,56192,51.345474,12.382064,1
Leipzig Hbf,56192,522342,51.34547,12.382064,
Leipzig/Halle Flughafen,,174955,51.42334,12.22343,1
Leipzig/Halle Flughafen,174955,96647,51.42334,12.223426,
Lennestadt-Altenhundem,423215,313134,51.103645,8.071282,
Lennestadt-Altenhundem Bf,,423215,51.104046,8.071534,1
Lennestadt-Grevenbrück,607176,19209,51.141613,8.018227,
Lennestadt-Grevenbrück,607176,525591,51.14155,8.018138,
Lennestadt-Grevenbrück Bf,,607176,51.141815,8.017662,1
Leoben Hbf,,560842,47.386604,15.089603,1
Leoben Hbf,560842,138593,47.386604,15.089603,
Lesce-Bled,,519216,46.360416,14.157971,1
Lesce-Bled,519216,359755,46.360416,14.157971,
Letmathe,63560,152906,51.36265,7.617839,
Letmathe,63560,165440,51.362747,7.617794,
Leverkusen Mitte,335306,586057,51.032265,6.990249,
Leverkusen Wiesdorf Mitte Bf,,335306,51.03151,6.991651,1
Lichtenfels,,183013,50.146454,11.059474,1
Lichtenfels,183013,298557,50.146454,11.059472,
Liestal,,271033,47.484375,7.731353,1
Liestal,271033,506083,47.484375,7.731353,
Liezen,,448975,47.56271,14.241886,1
Liezen,448975,168310,47.56271,14.241886,
Limburg (Lahn) Süd (ICE),,217931,50.38191,8.095532,1
Limburg Süd,217931,209186,50.3819,8.095546,
Limburg Süd,217931,320126,50.382423,8.09593,
Lindau-Reutin,,305042,47.552383,9.703287,1
Lindau-Reutin,305042,159145,47.552383,9.703292,
Lingen(Ems),34237,550463,52.519867,7.321731,
"Lingen, Bahnhof",,34237,52.519543,7.321198,1
Linz Hbf,,247013,48.29018,14.292131,1
Linz Hbf,247013,384304,48.29018,14.292131,
Lippstadt,583133,530577,51.670666,8.348161,
Lippstadt,583133,599459,51.67074,8.349113,
"Lippstadt, Bustreff Bahnhof",,583133,51.671047,8.349535,1
Liège-Guillemins,,637829,50.62436,5.566483,1
Liège-Guillemins,637829,182451,50.62436,5.566483,
Ljubljana,,654197,46.05869,14.512937,1
Ljubljana,654197,512971,46.05869,14.512937,
Lubin Gorniczy,,233317,51.39612,16.193586,1
Lubin Gorniczy,233317,114258,51.39612,16.193586,
Ludwigsburg,,649349,48.892082,9.185229,1
Ludwigsburg,649349,232192,48.892147,9.185409,
Ludwigsburg,649349,372793,48.89186,9.18542,
Ludwigshafen(Rh)Hbf,233310,644137,49.47522,8.432333,
"Ludwigshafen, Hauptbahnhof",,233310,49.476994,8.433321,1
Ludwigslust,145617,437144,53.33467,11.494491,
Ludwigslust,145617,553492,53.334885,11.49398,
Ludwigslust,145617,556965,53.335045,11.494205,
Ludwigslust Bahnhof,,145617,53.334454,11.494384,1
Ludwigsstadt,,580161,50.486584,11.382993,1
Ludwigsstadt,580161,418744,50.486584,11.382989,
Lunderskov st,,436306,55.48012,9.303791,1
Lunderskov st,436306,350898,55.48012,9.303791,
Lutherstadt Wittenberg Hbf,,22809,51.86781,12.662289,1
Lutherstadt Wittenberg Hbf,22809,664468,51.86781,12.662285,
Lübben(Spreewald),494772,110617,51.939842,13.877132,
Lübben(Spreewald),494772,622523,51.93978,13.877006,
"Lübben, Bahnhof",,494772,51.93989,13.877536,1
Lübbenau(Spreewald),270038,412877,51.862026,13.961095,
Lübbenau(Spreewald),270038,438886,51.862095,13.961176,
"Lübbenau, Bahnhof",,270038,51.862114,13.962173,1
Lübeck Hbf,,444617,53.867214,10.668884,1
Lübeck Hbf,444617,21260,53.8676,10.668868,
Lübeck Hbf,444617,513137,53.867172,10.668899,
Lüneburg,,347482,53.249958,10.419971,1
Lüneburg,347482,338855,53.249535,10.419739,
Lüneburg,347482,483122,53.249653,10.419886,
Lüneburg,347482,661375,53.24953,10.419999,
MG Hbf /Europaplatz,,229552,51.19697,6.445394,1
MG Rheydt Hbf,,93130,51.162895,6.440256,1
Maasbüll(b Niebüll),,343991,54.754414,8.812732,1
Maasbüll(b Niebüll),343991,642708,54.754414,8.812732,
Magdeburg Hbf,,73267,52.13035,11.626888,1
Magdeburg Hbf,73267,394609,52.13035,11.626891,
Magdeburg-Buckau,,657608,52.109207,11.630039,1
Magdeburg-Buckau,657608,70307,52.109203,11.63004,
Mainz Hbf,355696,420443,50.001118,8.25872,
"Mainz, Hauptbahnhof",,355696,50.00145,8.258419,1
Mallnitz-Obervellach,,508617,46.981213,13.176498,1
Mallnitz-Obervellach,508617,395170,46.981213,13.176498,
Mannheim Hbf,310590,267770,49.478836,8.469559,
Mannheim Hbf,310590,287224,49.4789,8.46964,
Mannheim Hbf,310590,358911,49.479355,8.468921,
Mannheim Hbf,310590,456704,49.479134,8.4699,
Mannheim Hbf,310590,526465,49.479076,8.46982,
Mannheim Hbf,310590,567374,49.47901,8.469757,
Mannheim Hbf,310590,582804,49.47928,8.47008,
Mannheim Hbf,310590,82828,49.47923,8.470026,
"Mannheim, Hauptbahnhof",,310590,49.479748,8.469936,1
Marburg Hauptbahnhof,,253000,50.819256,8.774007,1
Marburg(Lahn),253000,614024,50.818718,8.77401,
Marburg(Lahn),253000,97629,50.819256,8.774007,
Marienhafe,352626,337509,53.51922,7.27422,
Marienhafe,352626,96855,53.51933,7.274294,
Marienhafe Bahnhof,,352626,53.519897,7.273198,1
Memmingen,,208485,47.985584,10.18685,1
Memmingen,208485,80043,47.98558,10.186853,
Meppen,70306,521172,52.696022,7.298015,
"Meppen, Bahnhof",,70306,52.695477,7.298093,1
Metzingen Bahnhof,,307086,48.539753,9.29008,1
Metzingen(Württ),307086,130982,48.54001,9.290044,
Metzingen(Württ),307086,459444,48.539318,9.290089,
Miechow,,402203,50.35442,20.011295,1
Miechow,402203,63909,50.35442,20.011295,
Milano Centrale,,340031,45.48714,9.204824,1
Milano Centrale,340031,2929,45.48714,9.204824,
Minden(Westf),75050,124021,52.29067,8.934222,
Minden(Westf),75050,283940,52.29053,8.934814,
Minden(Westf),75050,396058,52.290478,8.935057,
"Minden, Bahnhof",,75050,52.29013,8.934177,1
"Minden, Kaiserstraße",,54972,52.289375,8.927915,1
"Minden, Kaiserstraße",54972,600853,52.28943,8.927862,
Montabaur,148077,546947,50.444836,7.825333,
Montabaur Bf,,148077,50.44483,7.825323,1
Mosonmagyarovar,,248790,47.850357,17.266424,1
Mosonmagyarovar,248790,380606,47.850357,17.266424,
Murnau,,626653,47.682266,11.192631,1
Murnau,626653,583777,47.682266,11.192628,
Mönchengladbach Hbf,229552,139029,51.196655,6.446095,
Mönchengladbach Hbf,229552,155648,51.196697,6.446014,
Mönchengladbach Hbf,229552,291375,51.196808,6.44578,
Mönchengladbach Hbf,229552,35705,51.19659,6.44623,
Mönchengladbach Hbf,229552,486264,51.196484,6.446454,
Mönchengladbach Hbf,229552,552240,51.19677,6.445852,
Mühlacker,470504,554633,48.95299,8.846079,
Mühlacker Bahnhof,,470504,48.95299,8.846079,1
Mülheim Hauptbahnhof,,416092,51.430553,6.886431,1
Mülheim(Ruhr)Hbf,416092,160506,51.431343,6.88651,
Mülheim(Ruhr)Hbf,416092,399707,51.431454,6.88679,
Mülheim(Ruhr)Hbf,416092,493952,51.43114,6.886665,
Müllheim (Baden) Bahnhof,,248846,47.809597,7.599487,1
Müllheim(Baden),248846,616447,47.809742,7.599332,
München Hbf,,210727,48.14029,11.559602,1
München Hbf,210727,145395,48.13994,11.557491,
München Hbf,210727,153864,48.14097,11.557671,
München Hbf,210727,206003,48.140553,11.557608,
München Hbf,210727,247210,48.140385,11.557572,
München Hbf,210727,251708,48.139828,11.553727,
München Hbf,210727,25402,48.14016,11.553898,
München Hbf,210727,263183,48.1399,11.553772,
München Hbf,210727,2852,48.140236,11.557545,
München Hbf,210727,299478,48.1405,11.55759,
München Hbf,210727,301824,48.141293,11.556161,
München Hbf,210727,318096,48.140705,11.557617,
München Hbf,210727,368862,48.140182,11.557527,
München Hbf,210727,38981,48.140812,11.557644,
München Hbf,210727,389994,48.14008,11.557518,
München Hbf,210727,397567,48.14086,11.557662,
München Hbf,210727,426840,48.14008,11.553853,
München Hbf,210727,431108,48.14065,11.557617,
München Hbf,210727,455469,48.14141,11.556206,
München Hbf,210727,462492,48.14033,11.557572,
München Hbf,210727,534086,48.141212,11.556161,
München Hbf,210727,547296,48.139954,11.553799,
München Hbf,210727,573525,48.13988,11.557491,
München Hbf,210727,651551,48.140232,11.558335,
München Hbf,210727,665218,48.140026,11.557518,
München Hbf,210727,84306,48.14134,11.556179,
München Hbf Gl.27-36,210727,183301,48.14153,11.556708,
München Hbf Gl.5-10,210727,669511,48.13993,11.554814,
München Ost,663103,51134,48.127304,11.605533,
München Ost,663103,535205,48.12744,11.604971,
München Ost,663103,632679,48.127388,11.605407,
München Ost,663103,655250,48.12872,11.604796,
München-Pasing,480195,622151,48.149853,11.461872,
Münster Hauptbahnhof,,131965,51.9567,7.63444,1
Münster(Westf)Hbf,131965,34205,51.956566,7.635715,
Münster(Westf)Hbf,131965,35111,51.95697,7.635815,
Münster(Westf)Hbf,131965,433496,51.95692,7.636192,
Münster(Westf)Hbf,131965,435951,51.956894,7.636452,
Münster(Westf)Hbf,131965,46881,51.95694,7.636075,
Münster(Westf)Hbf,131965,50465,51.95702,7.635446,
Münster(Westf)Hbf,131965,99837,51.95698,7.635743,
Mürzzuschlag,,85460,47.60795,15.677393,1
Mürzzuschlag,85460,486884,47.60795,15.677393,
Nagymaros-Visegrad,,444493,47.790894,18.9588,1
Nagymaros-Visegrad,444493,629490,47.790894,18.9588,
Naumburg(Saale)Hbf,,53076,51.16307,11.796988,1
Naumburg(Saale)Hbf,53076,327719,51.16307,11.796984,
Neu-Ulm,,216329,48.393044,10.004825,1
Neu-Ulm,216329,281588,48.39304,10.004823,
Neumarkt am Wallersee,,106258,47.954674,13.224806,1
Neumarkt am Wallersee,106258,214615,47.954674,13.224806,
Neumünster,,594469,54.07566,9.979757,1
Neumünster,594469,242168,54.075653,9.979683,
Neumünster,594469,628487,54.075672,9.979839,
Neumünster,594469,6755,54.075626,9.979576,
Neuss Hauptbahnhof,,289857,51.203526,6.683106,1
Neuss Hbf,289857,376577,51.205223,6.684885,
Neustadt(Weinstr)Hbf,401622,104059,49.349648,8.141584,
Neustadt(Weinstr)Hbf,401622,350416,49.34955,8.141557,
"Neustadt, Hauptbahnhof",,401622,49.35004,8.139967,1
Neustrelitz Hauptbahnhof,,329604,53.359474,13.07435,1
Neustrelitz Hbf,329604,258651,53.359283,13.074503,
Niebüll,,96565,54.78956,8.834768,1
Niebüll,96565,24278,54.789547,8.834721,
Niebüll,96565,389541,54.78953,8.834595,
Niebüll,96565,524741,54.789566,8.834805,
Niebüll neg,,260797,54.78955,8.832959,1
Niebüll neg,260797,93304,54.78955,8.832959,
Nienburg(Weser),,340397,52.645344,9.217862,1
Nienburg(Weser),340397,148620,52.64541,9.218015,
Nienburg(Weser),340397,210517,52.645466,9.218102,
Nienburg(Weser),340397,90111,52.645363,9.2179,
Norddeich,176422,322338,53.621464,7.160943,
Norddeich,176422,643993,53.62158,7.160824,
Norddeich Mole,653227,455957,53.62432,7.158739,
Norddeich(Norden),,176422,53.62152,7.160884,1
Norddeich(Norden) Mole,,653227,53.62432,7.158739,1
Norden,285635,162327,53.588104,7.219352,
Norden,285635,165270,53.587917,7.21929,
Norden(Ostfriesl),,285635,53.588013,7.219321,1
Northeim,,619556,51.70327,9.986607,1
Northeim(Han),619556,372424,51.70326,9.986306,
Nove Zamky,,425417,47.995003,18.173956,1
Nove Zamky,425417,236527,47.995003,18.173956,
Nürnberg Hbf,,326966,49.445614,11.082992,1
Nürnberg Hbf,326966,91205,49.445618,11.082989,
Nürtingen,,318551,48.62813,9.342721,1
Nürtingen,318551,225964,48.628147,9.342748,
Nürtingen,318551,5428,48.628136,9.342677,
Oberhausen Hbf,,179726,51.474,6.853346,1
Oberhausen Hbf,179726,20822,51.474876,6.851588,
Oberhausen Hbf,179726,468033,51.47462,6.85128,
Oberhausen Hbf,179726,525294,51.474323,6.851891,
Oberhausen Hbf,179726,541641,51.474403,6.851738,
Oberhausen Hbf,179726,656426,51.47446,6.851612,
Oberndorf (Neckar) Bahnhof,,357315,48.29559,8.575291,1
Oberndorf(Neckar),357315,18855,48.295506,8.575614,
Oberndorf(Neckar),357315,219871,48.2955,8.575479,
Oberstdorf,,224358,47.411034,10.278092,1
Oberstdorf,224358,499378,47.411034,10.278097,
Odense st,,593547,55.401775,10.386005,1
Odense st,593547,118645,55.401775,10.386005,
Offenburg,120667,614854,48.476475,7.946723,
Offenburg Bahnhof,,120667,48.476387,7.946587,1
Oldenburg(Oldb)Hbf,320843,629901,53.14432,8.222713,
"Oldenburg, Hauptbahnhof",,320843,53.144222,8.222684,1
Olten,,185210,47.351936,7.9077,1
Olten,185210,8133,47.351936,7.9077,
Opatija Matulji,,533363,45.3647,14.32098,1
Opatija Matulji,533363,562395,45.3647,14.32098,
Opoczno Poludnie,,144987,51.358517,20.231709,1
Opoczno Poludnie,144987,276881,51.358517,20.231709,
Opole Glowne,,543934,50.661514,17.925863,1
Opole Glowne,543934,135958,50.661514,17.925863,
Oranienburg,482664,134076,52.75412,13.249437,
Oranienburg,482664,372628,52.75408,13.249215,
Oranienburg,482664,463071,52.754093,13.249336,
Osnabrück Hbf,,207050,52.27313,8.060825,1
Osnabrück Hbf,207050,229624,52.272606,8.061793,
Osnabrück Hbf,207050,471195,52.273598,8.059918,
Osnabrück Hbf,207050,536137,52.272747,8.061333,
Osnabrück Hbf,207050,611831,52.27351,8.059799,
Osnabrück Hbf,207050,651375,52.272697,8.061522,
Osnabrück Hbf,207050,71990,52.27298,8.061441,
Ostbahnhof,,663103,48.128056,11.603646,1
Ostbahnhof,663103,120763,48.128296,11.604329,
Osterholz-Scharmbeck,,306062,53.222744,8.7974,1
Osterholz-Scharmbeck,306062,368550,53.22273,8.79746,
Osterholz-Scharmbeck,306062,570298,53.222763,8.797339,
Ostrava hl.n.,,629474,49.852085,18.267262,1
Ostrava hl.n.,629474,253287,49.852085,18.267262,
Ostseebad Binz,197005,10103,54.40482,13.600507,
Ostseebad Binz,197005,101292,54.405552,13.599532,
Ostseebad Binz,197005,9834,54.4056,13.599694,
Oswiecim,,502197,50.041504,19.199724,1
Oswiecim,502197,561837,50.041504,19.199724,
Padborg st,,118686,54.82425,9.358803,1
Padborg st,118686,45163,54.82425,9.358803,
Paderborn Hbf,,220892,51.712917,8.739925,1
Paderborn Hbf,220892,294653,51.712894,8.740338,
Paderborn Hbf,220892,311987,51.71295,8.740311,
Padova,,306745,45.417824,11.88062,1
Padova,306745,161112,45.417824,11.88062,
Papenburg(Ems),619761,99863,53.089706,7.386708,
"Papenburg, Bahnhof",,619761,53.090424,7.388122,1
Pardubice hl.n.,,13757,50.03174,15.756211,1
Pardubice hl.n.,13757,247907,50.03174,15.756211,
Paris Est,,388918,48.876976,2.35912,1
Paris Est,388918,437273,48.876976,2.35912,
Pasewalk,460585,419604,53.51519,13.988988,
Pasewalk,460585,457155,53.515354,13.988875,
Pasewalk Bahnhof,,460585,53.515038,13.989293,1
Pasing,,480195,48.1489,11.460428,1
Pasing,480195,251847,48.14933,11.458901,
Pasing,480195,595494,48.149197,11.459296,
Passau Hbf,,340308,48.57363,13.45078,1
Passau Hbf,340308,494779,48.57363,13.450776,
Peine,645215,231959,52.318916,10.231892,
Peine,645215,513665,52.31896,10.232197,
"Peine, Bahnhof",,645215,52.318928,10.232422,1
Pforzheim Hauptbahnhof,,471632,48.89365,8.703453,1
Pforzheim Hbf,471632,256202,48.89414,8.702699,
Pforzheim Hbf,471632,348514,48.894154,8.703099,
Pforzheim Hbf,471632,384205,48.89421,8.702699,
Pivka,,108148,45.675255,14.191376,1
Pivka,108148,134243,45.675255,14.191376,
Plattling,,220500,48.77962,12.863938,1
Plattling,220500,386287,48.779617,12.86394,
"Plett., Bahnhof",,511179,51.232162,7.869206,1
Plettenberg,511179,302960,51.23205,7.867805,
Plettenberg,511179,644358,51.231792,7.86952,
Plochingen,,635221,48.71294,9.411299,1
Plochingen,635221,360518,48.71284,9.411074,
Plochingen,635221,577187,48.71292,9.411254,
Plochingen,635221,617091,48.71296,9.411353,
Postojna,,373628,45.7731,14.221469,1
Postojna,373628,188865,45.7731,14.221469,
Potsdam Hbf,66510,16593,52.391582,13.06674,
Potsdam Hbf,66510,287814,52.391422,13.066721,
Potsdam Hbf,66510,639673,52.391666,13.066749,
Poznan Gl.,,523200,52.401993,16.91087,1
Poznan Gl.,523200,129452,52.401993,16.91087,
Praha hl.n.,,528015,50.08306,14.436039,1
Praha hl.n.,528015,137462,50.08306,14.436039,
Praha-Holesovice,,439877,50.110214,14.440013,1
Praha-Holesovice,439877,380139,50.110214,14.440013,
Prenzlau,218608,240989,53.32162,13.86654,
Prenzlau,218608,343382,53.321636,13.866409,
"Prenzlau, Bahnhof",,218608,53.321613,13.866558,1
Prien am Chiemsee,,116919,47.855515,12.346616,1
Prien am Chiemsee,116919,513219,47.855515,12.346615,
Przemysl Glowny,,119952,49.78366,22.776363,1
Przemysl Glowny,119952,364414,49.78366,22.776363,
Przeworsk,,556898,50.067215,22.503357,1
Przeworsk,556898,648539,50.067215,22.503357,
Pörtschach am Wörther See,,91294,46.6362,14.146231,1
Pörtschach am Wörther See,91294,584624,46.6362,14.146231,
RV Bahnhof,,326531,47.784554,9.606673,1
Radolfzell,636255,345328,47.735676,8.969058,
Radolfzell,636255,575485,47.735714,8.969103,
Radolfzell Bahnhof,,636255,47.735924,8.969031,1
Radstadt,,283030,47.38424,13.467809,1
Radstadt,283030,334472,47.38424,13.467809,
Rankweil,,69164,47.273018,9.637252,1
Rankweil,69164,130973,47.273018,9.637252,
Rastatt,,228619,48.860622,8.215165,1
Rastatt,228619,93291,48.86085,8.21592,
Ravensburg,326531,531071,47.784374,9.606126,
Ravensburg,326531,542293,47.78441,9.605964,
Recklinghausen Hbf,,302895,51.61598,7.201371,1
Recklinghausen Hbf,302895,574939,51.61667,7.203509,
Regensburg Hbf,,480786,49.01167,12.099624,1
Regensburg Hbf,480786,281235,49.011673,12.099617,
Remagen,141115,87997,50.577213,7.229779,
Remagen Bf,,141115,50.57721,7.229767,1
Rendsburg,,448986,54.302097,9.671307,1
Rendsburg,448986,129241,54.302155,9.671009,
Rendsburg,448986,327569,54.302082,9.671422,
Reutlingen Hauptbahnhof,,53300,48.49643,9.20951,1
Reutlingen Hbf,53300,219357,48.49659,9.209771,
Reutlingen Hbf,53300,631140,48.496216,9.20934,
Rheine,342662,116189,52.275837,7.434987,
Rheine,342662,483368,52.27575,7.434754,
Rheine,342662,76679,52.275906,7.435158,
"Rheine, Bahnhof",,342662,52.276505,7.435733,1
Rheydt Hbf,93130,122487,51.162872,6.439879,
Rheydt Hbf,93130,657391,51.162872,6.439456,
Ribnitz-Damgarten West,,636568,54.23918,12.436968,1
Ribnitz-Damgarten West,636568,502653,54.239178,12.436965,
Ribnitz-Damgarten West,636568,527047,54.2392,12.437373,
Ribnitz-Damgarten West,636568,552200,54.239265,12.437355,
Riesa,81072,179419,51.30983,13.288293,
Riesa,81072,180713,51.309654,13.287734,
Riesa,81072,381896,51.309734,13.288329,
Riesa,81072,81091,51.309536,13.287395,
Riesa Busbf/Bahnhof,,81072,51.3094,13.288383,1
Rijeka,,52577,45.330135,14.430337,1
Rijeka,52577,299698,45.330135,14.430337,
Ringsheim Bahnhof,,420177,48.248672,7.773023,1
Ringsheim/Europa-Park,420177,224480,48.248688,7.772987,
Ringsheim/Europa-Park,420177,618446,48.248726,7.773037,
Ringsted st,,156566,55.438038,11.786155,1
Ringsted st,156566,162176,55.438038,11.786155,
Roedekro st,,20290,55.069687,9.332754,1
Roedekro st,20290,295955,55.069687,9.332754,
Rosenheim,,134713,47.850018,12.119207,1
Rosenheim,134713,452049,47.850018,12.119202,
Rostock Hauptbahnhof,,366837,54.07818,12.130724,1
Rostock Hbf,366837,106286,54.077587,12.132206,
Rostock Hbf,366837,124047,54.078724,12.130823,
Rostock Hbf,366837,133643,54.078262,12.131398,
Rostock Hbf,366837,25789,54.078526,12.1304,
Rostock Hbf,366837,394056,54.078793,12.130948,
Rostock Hbf,366837,405474,54.07861,12.130176,
Rostock Hbf,366837,472245,54.078552,12.130059,
Rostock Hbf,366837,55666,54.078247,12.131079,
Rottweil,168977,233353,48.165527,8.63988,
Rottweil,168977,368057,48.16566,8.639871,
Rottweil Bahnhof,,168977,48.165253,8.640661,1
Rovereto,,561989,45.890564,11.033907,1
Rovereto,561989,146798,45.89096,11.033601,
Rudolstadt (Thüringen),,82210,50.718,11.339156,1
Rudolstadt(Thür),82210,669730,50.71793,11.338899,
Rzepin,,118181,52.350224,14.815073,1
Rzepin,118181,172778,52.350224,14.815073,
Rzeszow Gl.,,632943,50.043114,22.006798,1
Rzeszow Gl.,632943,194873,50.043114,22.006798,
S Bernau Bhf,,519553,52.675686,13.592695,1
S Königs Wusterhausen Bhf,,163845,52.29672,13.631534,1
S Königs Wusterhausen Bhf,163845,71111,52.296642,13.631479,
S Oranienburg Bhf,,482664,52.754486,13.248311,1
S Ostbahnhof (Berlin),,513544,52.51033,13.435086,1
S Ostkreuz Bhf (Berlin),,104669,52.503113,13.469221,1
S Potsdam Hauptbahnhof,,66510,52.391445,13.067157,1
S Spandau Bhf (Berlin),,372944,52.534798,13.197477,1
S Südkreuz Bhf (Berlin),,392079,52.475502,13.365552,1
S Wannsee Bhf (Berlin),,157757,52.421726,13.178932,1
S+U Berlin Hauptbahnhof,,247157,52.525604,13.369075,1
S+U Gesundbrunnen Bhf (Berlin),,169470,52.548637,13.388372,1
S+U Zoologischer Garten Bhf (Berlin),,136579,52.50692,13.332707,1
Saalfeld (Saale),,265422,50.65049,11.374546,1
Saalfeld(Saale),265422,84371,50.650272,11.374583,
Saalfelden,,203136,47.426857,12.829765,1
Saalfelden,203136,563140,47.426857,12.829765,
Saarbrücken Hbf,,568425,49.24107,6.99102,1
Saarbrücken Hbf,568425,141801,49.241066,6.991021,
Salzburg Hbf,,179101,47.81305,13.04582,1
Salzburg Hbf,179101,583605,47.81305,13.04582,
Salzburg Süd,,545275,47.770226,13.078491,1
Salzburg Süd,545275,462200,47.770226,13.078491,
Sapjane,,402315,45.477036,14.244352,1
Sapjane,402315,639020,45.477036,14.244352,
Sapjane(Gr),,96320,45.505157,14.244213,1
Sapjane(Gr),96320,49293,45.505157,14.244213,
Sargans,,215214,47.044823,9.44626,1
Sargans,215214,389999,47.044823,9.44626,
Schaffhausen,,375167,47.69828,8.632756,1
Schaffhausen,375167,101346,47.69828,8.632756,
Schladming,,570118,47.393826,13.678151,1
Schladming,570118,450962,47.393826,13.678151,
Schleswig,,402916,54.499516,9.538149,1
Schleswig,402916,275311,54.49946,9.53814,
Schleswig,402916,71515,54.499577,9.538158,
Schlüchtern,139447,255593,50.340927,9.509989,
Schlüchtern Bahnhof,,139447,50.340816,9.510662,1
Schorndorf,,172490,48.80694,9.52569,1
Schorndorf,172490,289730,48.80715,9.52631,
Schorndorf,172490,472433,48.80708,9.52578,
Schorndorf,172490,91373,48.806984,9.525861,
Schw. Gmünd Bahnhof,,311086,48.800285,9.787118,1
Schwarzach-St.Veit,,104517,47.318535,13.154464,1
Schwarzach-St.Veit,104517,336747,47.318535,13.154464,
Schwerin Hauptbahnhof,,125084,53.6347,11.407499,1
Schwerin Hbf,125084,19234,53.635628,11.407445,
Schwerin Hbf,125084,80835,53.63474,11.407455,
Schwerin Hbf,125084,81977,53.63563,11.407544,
Schwerte(Ruhr),534739,286811,51.44259,7.559099,
Schwerte(Ruhr),534739,489017,51.44253,7.559341,
"Schwerte, Bahnhof",,534739,51.44227,7.559593,1
Schwäbisch Gmünd,311086,358498,48.80101,9.787795,
Schärding,,112457,48.46372,13.442511,1
Schärding,112457,134689,48.46372,13.442511,
Schöna(Gr),,641590,50.860054,14.222133,1
Schöna(Gr),641590,250944,50.860054,14.222133,
Selzthal,,477562,47.550243,14.312841,1
Selzthal,477562,369594,47.550243,14.312841,
Semmering,,33868,47.639553,15.830923,1
Semmering,33868,182099,47.639553,15.830923,
Sevnica,,528024,46.009678,15.301231,1
Sevnica,528024,159041,46.009678,15.301231,
Siegburg Bf,,546191,50.79392,7.203024,1
Siegburg/Bonn,546191,35790,50.793915,7.203026,
Siegburg/Bonn,546191,381177,50.79384,7.202854,
Siegburg/Bonn,546191,594617,50.79375,7.202647,
Siegen Hbf,,247268,50.875893,8.016278,1
Siegen Hbf,247268,480103,50.876507,8.01715,
Siegen Hbf,247268,595739,50.876408,8.017311,
Siegen-Weidenau,81482,138309,50.895786,8.02978,
Siegen-Weidenau,81482,330418,50.8958,8.029959,
Siegen-Weidenau Bf,,81482,50.895866,8.029861,1
Singen (Htw) Bahnhof,,619911,47.75903,8.841408,1
Singen(Hohentwiel),619911,189317,47.75892,8.841381,
Singen(Hohentwiel),619911,20451,47.75903,8.841219,
Singen(Hohentwiel),619911,282238,47.75876,8.841471,
Singen(Hohentwiel),619911,405362,47.7586,8.840231,
Skanderborg st,,452459,56.043564,9.924497,1
Skanderborg st,452459,452898,56.043564,9.924497,
Soest,62881,506027,51.5783,8.105409,
Soest,62881,89507,51.57819,8.105337,
"Soest, Bahnhof",,62881,51.57811,8.104223,1
Solingen Hbf,,217829,51.16073,7.003688,1
Solingen Hbf,217829,168354,51.160824,7.004128,
Solingen Hbf,217829,328853,51.161087,7.003985,
Solingen Hbf,217829,626195,51.160767,7.004187,
Sonthofen,,410224,47.51324,10.272343,1
Sonthofen,410224,218743,47.51324,10.272344,
Sopot,,490122,54.440166,18.562323,1
Sopot,490122,428495,54.440166,18.562323,
Spaichingen,237525,229104,48.068832,8.741704,
Spaichingen,237525,242506,48.068996,8.741704,
Spaichingen Bahnhof,,237525,48.06909,8.74094,1
Spiez,,11276,46.686398,7.680103,1
Spiez,11276,40556,46.686398,7.680103,
Spittal-Millstättersee,,603874,46.7957,13.487416,1
Spittal-Millstättersee,603874,161866,46.7957,13.487416,
St Georgen(Schwarzw),559819,222358,48.123814,8.341955,
St Georgen(Schwarzw),559819,356204,48.123955,8.342187,
St Georgen(Schwarzw),559819,38143,48.123898,8.342187,
St. Anton am Arlberg,,254561,47.127563,10.26699,1
St. Anton am Arlberg,254561,54027,47.127563,10.26699,
St. Gallen(CH),,161808,47.42318,9.369897,1
St. Gallen(CH),161808,299720,47.42318,9.369897,
St. Georgen (Schwarzw) Bahnhof,,559819,48.123844,8.342133,1
St. Johann im Pongau,,151194,47.348377,13.194961,1
St. Johann im Pongau,151194,75671,47.348377,13.194961,
St. Johann in Tirol,,26920,47.51962,12.430775,1
St. Johann in Tirol,26920,309268,47.51962,12.430775,
St. Margrethen SG,,97677,47.453217,9.638262,1
St. Margrethen SG,97677,85206,47.453217,9.638262,
St. Valentin,,119367,48.179146,14.521846,1
St. Valentin,119367,1540,48.179146,14.521846,
St.Michael in Obersteiermark,,135275,47.346622,15.009187,1
St.Michael in Obersteiermark,135275,84086,47.346622,15.009187,
St.Pölten Hbf,,505970,48.2083,15.624672,1
St.Pölten Hbf,505970,632780,48.2083,15.624672,
Stadt Rottenmann,,420963,47.52723,14.367174,1
Stadt Rottenmann,420963,590628,47.52723,14.367174,
Stadtroda,,119468,50.86817,11.723213,1
Stadtroda,119468,436656,50.868217,11.722792,
Stainach-Irdning,,634180,47.529194,14.106753,1
Stainach-Irdning,634180,253893,47.529194,14.106753,
Steinach (b Rothenburg o.d.T.),,420960,49.45322,10.273538,1
Steinach(b Rothenburg ob der Tauber),420960,110537,49.453217,10.273535,
Stendal Hbf,,117452,52.59472,11.854412,1
Stendal Hbf,117452,175,52.594723,11.854412,
Stralsund Hauptbahnhof,,188136,54.309105,13.077773,1
Stralsund Hbf,188136,146040,54.308624,13.077321,
Stralsund Hbf,188136,182490,54.308174,13.078698,
Stralsund Hbf,188136,215922,54.308075,13.078294,
Stralsund Hbf,188136,228805,54.30815,13.07859,
Stralsund Hbf,188136,258703,54.30801,13.078087,
Stralsund Hbf,188136,412574,54.308037,13.078177,
Stralsund Hbf,188136,413094,54.30812,13.078464,
Strasbourg,,393193,48.58534,7.734067,1
Strasbourg,393193,494253,48.58534,7.734067,
Straubing,,86525,48.87698,12.574096,1
Straubing,86525,559910,48.87698,12.574094,
Stresa,,594158,45.88453,8.531633,1
Stresa,594158,207606,45.88453,8.531633,
Sturovo,,396071,47.800125,18.67992,1
Sturovo,396071,274198,47.800125,18.67992,
Stuttgart Hauptbahnhof (oben),,160095,48.784878,9.182794,1
Stuttgart Hbf,160095,326752,48.784084,9.181635,
Stuttgart Hbf,160095,615228,48.784748,9.183217,
Stuttgart Vaihingen,,640024,48.72698,9.113912,1
Stuttgart-Vaihingen,640024,466445,48.72628,9.113226,
Sulz (Neckar) Bahnhof,,318155,48.367237,8.637724,1
Sulz(Neckar),318155,459891,48.367573,8.637867,
Swiebodzin,,507760,52.245144,15.53954,1
Swiebodzin,507760,472082,52.245144,15.53954,
Szob,,258762,47.821,18.862057,1
Szob,258762,487086,47.821,18.862057,
Szob(Gr),,48926,47.824898,18.844774,1
Szob(Gr),48926,279457,47.824898,18.844774,
Tarnow,,560402,50.0054,20.97418,1
Tarnow,560402,530198,50.0054,20.97418,
Tatabanya,,574840,47.58493,18.393612,1
Tatabanya,574840,327255,47.58493,18.393612,
Tczew,,97621,54.09732,18.790155,1
Tczew,97621,357291,54.09732,18.790155,
Telfs-Pfaffenhofen,,159529,47.30071,11.078869,1
Telfs-Pfaffenhofen,159529,650234,47.30071,11.078869,
Thun,,199115,46.754692,7.629414,1
Thun,199115,478352,46.754692,7.629414,
Tinglev st,,533269,54.936172,9.258234,1
Tinglev st,533269,287198,54.936172,9.258234,
Traunstein,,372690,47.86973,12.638802,1
Traunstein,372690,535857,47.869728,12.638801,
Trento,,483943,46.07229,11.1189,1
Trento,483943,623605,46.07229,11.1189,
Treuchtlingen,,246806,48.96127,10.908162,1
Treuchtlingen,246806,426893,48.961266,10.908159,
Treysa,,469433,50.91066,9.185673,1
Treysa,469433,661116,50.91066,9.185673,
Triberg,497996,246702,48.140003,8.236806,
Triberg,497996,614205,48.14015,8.236833,
Triberg Bahnhof,,497996,48.139854,8.236904,1
Tullnerfeld,,654443,48.295235,15.996536,1
Tullnerfeld,654443,138621,48.295235,15.996536,
Tuttlingen,372937,425912,47.980232,8.798486,
Tuttlingen,372937,436733,47.98054,8.798271,
Tuttlingen Bahnhof,,372937,47.980335,8.79942,1
Tutzing,,611267,47.9074,11.273731,1
Tutzing,611267,19148,47.907097,11.272716,
Tübingen Hauptbahnhof,,448543,48.516148,9.055575,1
Tübingen Hbf,448543,133515,48.515587,9.055108,
Tübingen Hbf,448543,172899,48.51533,9.054776,
Tübingen Hbf,448543,390504,48.515465,9.054776,
Uelzen,,330249,52.96979,10.553017,1
Uelzen,330249,277403,52.969612,10.553516,
Uelzen,330249,45614,52.969658,10.553415,
Ulm Hauptbahnhof,,526588,48.399364,9.984146,1
Ulm Hbf,526588,12849,48.399353,9.982645,
Ulm Hbf,526588,200880,48.399437,9.982227,
Ulm Hbf,526588,239861,48.399345,9.982933,
Ulm Hbf,526588,562277,48.399345,9.982816,
Ulm Hbf,526588,581438,48.398678,9.983139,
Unna,440223,615887,51.53878,7.694852,
"Unna, Bahnhof",,440223,51.538776,7.693199,1
Usti nad Labem hl.n.,,515257,50.65956,14.044728,1
Usti nad Labem hl.n.,515257,481470,50.65956,14.044728,
Utrecht Centraal,,371044,52.089397,5.109861,1
Utrecht Centraal,371044,408514,52.089397,5.109861,
Vac,,646043,47.782726,19.13306,1
Vac,646043,113370,47.782726,19.13306,
Vaihingen (E),,350059,48.94815,8.957578,1
Vaihingen(Enz),350059,393342,48.948555,8.956527,
Vaihingen(Enz),350059,425180,48.948746,8.956868,
Vaihingen(Enz),350059,497329,48.948116,8.957632,
Vamdrup st,,527968,55.428093,9.286454,1
Vamdrup st,527968,262702,55.428093,9.286454,
Vejle st,,365163,55.706356,9.536869,1
Vejle st,365163,668322,55.706356,9.536869,
Velden am Wörther See,,138250,46.62005,14.044838,1
Velden am Wörther See,138250,344305,46.62005,14.044838,
Velgast,,380818,54.277256,12.803149,1
Velgast,380818,199171,54.277317,12.803137,
Velgast,380818,522564,54.277435,12.803131,
Venezia Mestre,,445817,45.481907,12.231898,1
Venezia Mestre,445817,81452,45.481907,12.231898,
Venezia Santa Lucia,,536026,45.441395,12.320459,1
Venezia Santa Lucia,536026,216023,45.441395,12.320459,
Venlo(Gr),,190780,51.340893,6.192712,1
Venlo(Gr),190780,140942,51.340893,6.192712,
Verden(Aller),,303610,52.920864,9.237906,1
Verden(Aller),303610,215271,52.920876,9.237633,
Verden(Aller),303610,905,52.920853,9.237766,
Verona Porta Nuova,,347626,45.428658,10.982739,1
Verona Porta Nuova,347626,50761,45.428658,10.982739,
Vicenza,,314700,45.5411,11.540777,1
Vicenza,314700,625596,45.5411,11.540777,
Viersen,662200,103479,51.254826,6.404808,
Viersen,662200,314225,51.254696,6.404701,
Viersen Bahnhof,,662200,51.2545,6.404,1
Villach Hbf,,458102,46.618626,13.848536,1
Villach Hbf,458102,218673,46.618626,13.848536,
Villingen Busbahnhof,,1852,48.057804,8.465427,1
Villingen(Schwarzw),1852,28264,48.05771,8.465588,
Villingen(Schwarzw),1852,307018,48.05802,8.465261,
Villingen(Schwarzw),1852,451001,48.057617,8.465553,
Visp,,450506,46.29403,7.881465,1
Visp,450506,166704,46.29403,7.881465,
Vojens st,,603820,55.248478,9.304915,1
Vojens st,603820,428407,55.248478,9.304915,
Vöcklabruck,,391521,48.010067,13.663703,1
Vöcklabruck,391521,236061,48.010067,13.663703,
Wabern(Bz Kassel),,344882,51.103134,9.35804,1
Wabern(Bz Kassel),344882,316563,51.103134,9.35804,
Wanne-Eickel Hbf,263630,158524,51.531445,7.166122,
Wanne-Eickel Hbf,263630,181546,51.531258,7.165783,
Wanne-Eickel Hbf,263630,26427,51.531357,7.166247,
Wanne-Eickel Hbf,263630,548539,51.531303,7.166328,
Wanne-Eickel Hbf,263630,568694,51.531178,7.166499,
Warburg(Westf),91316,23866,51.492992,9.164235,
Warburg(Westf),91316,386401,51.49288,9.164163,
"Warburg, Bahnhof",,91316,51.492752,9.163858,1
Waren (Müritz) Bahnhof,,33600,53.52151,12.681077,1
Waren(Müritz),33600,306191,53.52167,12.68061,
Waren(Müritz),33600,404072,53.52151,12.680678,
Waren(Müritz),33600,461448,53.52164,12.680484,
Warnemünde,,513002,54.17711,12.090839,1
Warnemünde,513002,274218,54.177235,12.091027,
Warnemünde,513002,37980,54.177288,12.091225,
Warszawa Centralna,,516259,52.22886,21.003235,1
Warszawa Centralna,516259,107884,52.22886,21.003235,
Warszawa Gdanska,,267003,52.259182,20.99371,1
Warszawa Gdanska,267003,109485,52.259182,20.99371,
Warszawa Wschodnia,,82947,52.25155,21.052336,1
Warszawa Wschodnia,82947,484208,52.25155,21.052336,
Warszawa Zachodnia,,602140,52.21997,20.965246,1
Warszawa Zachodnia,602140,331507,52.21997,20.965246,
Weil am Rhein,108942,102380,47.59368,7.608245,
Weil am Rhein,108942,277616,47.593643,7.60838,
Weil am Rhein Bahnhof,,108942,47.593693,7.608739,1
Weilheim (Oberbay),,109314,47.845364,11.142855,1
Weilheim(Oberbay),109314,659419,47.845364,11.14286,
Weimar,,114368,50.991486,11.326463,1
Weimar,114368,90705,50.991486,11.326458,
Weinheim(Bergstr)Hbf,174640,134086,49.55357,8.665571,
Weinheim(Bergstr)Hbf,174640,382226,49.553303,8.665351,
Weinheim(Bergstr)Hbf,174640,521002,49.55361,8.665401,
"Weinheim, Hauptbahnhof",,174640,49.55333,8.665697,1
Weißenfels,,622261,51.204613,11.970925,1
Weißenfels,622261,2463,51.204617,11.970926,
Wels Hbf,,141190,48.166077,14.026569,1
Wels Hbf,141190,14275,48.166077,14.026569,
Werdohl,618289,24838,51.25946,7.757393,
Werdohl,618289,490272,51.259377,7.757438,
"Werdohl, Bahnhof",,618289,51.259167,7.757734,1
Werfen,,178010,47.4726,13.195183,1
Werfen,178010,402406,47.4726,13.195183,
Westerland(Sylt),550091,117137,54.90691,8.311029,
Westerland(Sylt),550091,192916,54.90696,8.311079,
Westerland(Sylt) ZOB/Bahnhof,,550091,54.90688,8.310999,1
Westerstede-Ocholt,,450143,53.20229,7.886531,1
Westerstede-Ocholt,450143,258033,53.202248,7.886519,
Westerstede-Ocholt,450143,398288,53.202328,7.886542,
Wetzlar,96419,531856,50.56566,8.504213,
Wetzlar Bahnhof,,96419,50.56566,8.504213,1
Wien Hbf,,670861,48.1851,16.377113,1
Wien Hbf,670861,54186,48.1851,16.377113,
Wien Meidling,,430291,48.17445,16.333088,1
Wien Meidling,430291,671227,48.17445,16.333088,
Wiener Neustadt Hbf,,135970,47.81056,16.233187,1
Wiener Neustadt Hbf,135970,77274,47.81056,16.233187,
Wiesbaden Hauptbahnhof,,142759,50.069477,8.244631,1
Wiesbaden Hbf,142759,13890,50.06972,8.243677,
Wiesbaden Hbf,142759,574315,50.069477,8.244631,
Wiesloch-Walldorf,465563,162152,49.290966,8.66417,
Wiesloch-Walldorf,465563,348749,49.29098,8.664035,
Wiesloch-Walldorf,465563,522938,49.29135,8.664146,
Wiesloch-Walldorf,465563,86002,49.291355,8.664377,
"Wiesloch-Walldorf, Bf",,465563,49.291016,8.664449,1
Winterthur,,221188,47.500336,8.723821,1
Winterthur,221188,579029,47.500336,8.723821,
Witten Hbf,,257920,51.43542,7.330217,1
Witten Hbf,257920,318844,51.435375,7.329327,
Witten Hbf,257920,320911,51.435436,7.32948,
Wittenberge,,275009,53.003117,11.762871,1
Wittenberge,275009,615635,53.003117,11.762871,
Wloszczowa Polnoc,,513313,50.85811,19.947002,1
Wloszczowa Polnoc,513313,138388,50.85811,19.947002,
Wolfsburg Hbf,140274,176481,52.429497,10.787784,
Wolfsburg Hbf,140274,278873,52.429493,10.787698,
Wolfsburg Hbf,140274,387793,52.429382,10.787698,
Wolfsburg Hbf,140274,437504,52.429554,10.787913,
Wolfsburg Hbf,140274,543962,52.429665,10.787913,
"Wolfsburg, Hauptbahnhof",,140274,52.42946,10.78776,1
Worms Hbf,218904,279361,49.63494,8.356448,
Worms Hbf,218904,288222,49.63501,8.356596,
Worms Hbf,218904,541525,49.634727,8.356596,
"Worms, Hauptbahnhof",,218904,49.635113,8.356955,1
Wroclaw Glowny,,428072,51.097946,17.036674,1
Wroclaw Glowny,428072,172836,51.09808,17.037088,
Wuppertal Hbf,,159953,51.25508,7.149323,1
Wuppertal Hbf,159953,465345,51.254597,7.150042,
Wuppertal Hbf,159953,64251,51.254364,7.149543,
Wörgl Hbf,,172396,47.4918,12.060581,1
Wörgl Hbf,172396,411141,47.4918,12.060581,
Würzburg Hbf,,550076,49.801796,9.93578,1
Würzburg Hbf,550076,311739,49.801796,9.93578,
Zabrze,,515412,50.30528,18.786947,1
Zabrze,515412,35473,50.30528,18.786947,
Zagreb Glavni kolodvor,,126041,45.80444,15.978705,1
Zagreb Glavni kolodvor,126041,532905,45.80444,15.978705,
Zapresic,,553137,45.844494,15.813187,1
Zapresic,553137,395751,45.844494,15.813187,
Zbaszynek,,167148,52.242508,15.818092,1
Zbaszynek,167148,418086,52.242508,15.818092,
Zebrzydowice,,243844,49.87049,18.623697,1
Zebrzydowice,243844,313894,49.87049,18.623697,
Zebrzydowice(Gr),,585874,49.881973,18.576674,1
Zebrzydowice(Gr),585874,614598,49.881973,18.576674,
Zell am See,,411388,47.32052,12.796571,1
Zell am See,411388,556226,47.32052,12.796571,
Zidani Most,,661531,46.085587,15.170324,1
Zidani Most,661531,235315,46.085587,15.170324,
Zielona Gora Gl.,,437621,51.947437,15.513709,1
Zielona Gora Gl.,437621,314500,51.947437,15.513709,
Zürich Flughafen,,52098,47.450386,8.562402,1
Zürich Flughafen,52098,191392,47.450386,8.562402,
Zürich HB,,104196,47.378178,8.540212,1
Zürich HB,104196,293885,47.378178,8.540212,
Züssow,,620099,53.97505,13.547026,1
Züssow,620099,146783,53.972515,13.550179,
Züssow,620099,168981,53.97388,13.548191,
Züssow,620099,283428,53.97243,13.549999,
Ötztal,,237368,47.238483,10.859114,1
Ötztal,237368,654193,47.238483,10.859114,
Übersee,,595415,47.822044,12.487337,1
Übersee,595415,493501,47.82205,12.487338,
